State,District,Latitude,Longitude,Population,Male Literate,Female Literate,Scheduled Castes,Male Scheduled Castes,Female Scheduled Castes,Scheduled Tribes,Male Scheduled Tribes,Female Scheduled Tribes ,Workers,Male Workers,Female Workers,Main Workers,Marginal Workers,Non Workers,Cultivator Workers,Agricultural Workers,Household Workers,Other_Workers,Total Hindus,Total Muslims,Total Christians,Total Sikhs ,Total Buddhists,Total Jains,Others Religions,Religion Not Stated,LPG Households,Housholds with Electric Lighting,Households with Internet,Households with Computer,Rural Households,Urban Households,Households,Below Primary Education,Primary Education,Middle Education,Secondary Education,Higher Education,Graduation,Other Education,Households with Bicycle,Households with Car Jeep Van,Households with Radio Transistor,"Households with Scooter,Motorcycle,Moped","Households with Telephone,Mobile,Phone and Landline only","Households with Telephone,MobilePhone and Mobile only","Households with TV,Computer,Laptop,Telephone,mobile,phone and ScooterCar",Households with Television,"Households with Telephone,Mobile and Phone","Households with Telephone,Mobile and Phone",Total Religion,Literacy Rate,Sex Ratio
Andhra Pradesh,Adilabad,19.284513950073435,78.81321233480176,2741239,856350,626997,488596,242844,245752,495794,247472,248322,1323667,748939,574728,1066460,257207,1417572,363737,484912,84661,390357,2399901,275970,15422,1377,25510,617,322,22120,194954,566108,5512,45202,597466,220248,817714,232470,344167,281752,225957,143143,100226,19277,150289,8338,25190,96998,15483,374630,9483,306433,403530,13417,2719119,100.0,100.0
Andhra Pradesh,Anantapur,14.312065561843148,77.4601584478577,4081148,1338474,972486,583135,292379,290756,154127,78573,75554,2036166,1208544,827622,1679655,356511,2044982,413253,879537,105343,638033,3599372,443456,20463,932,341,1417,309,14858,223016,897970,8606,48299,902997,341431,1244428,462273,720357,582075,331793,162175,144915,23341,206433,9915,63528,144214,24039,534408,14470,559461,581087,22640,4066290,100.0,98.0
Andhra Pradesh,Chittoor,13.33109263067696,78.92763898886037,4174064,1484794,1183084,785760,389582,396178,159165,79756,79409,1933357,1202223,731134,1669852,263505,2240707,434544,748093,57269,693451,3737588,397870,24129,867,253,1322,358,11677,324406,944555,13763,67087,907970,395900,1303870,522961,770836,673197,548336,265199,246409,36017,225856,16296,93489,186568,35378,561188,24934,611465,632803,36237,4162387,100.0,100.0
Andhra Pradesh,East Godavari,16.782718320784902,82.2432074720511,5154296,1716933,1571644,945269,468883,476386,213195,104422,108773,2093681,1545831,547850,1748117,345564,3060615,160407,1122046,57853,753375,4983330,77777,77825,738,413,4149,403,9661,479914,1297273,22411,93784,1199479,406362,1605841,669420,947606,797497,521562,271809,263023,47702,779052,25381,113126,232073,65415,614288,34494,821421,732492,52789,5144635,100.0,101.0
Andhra Pradesh,Guntur,15.884925767634847,80.58657614107885,4887813,1634726,1325715,957407,476333,481074,247089,125105,121984,2381624,1442370,939254,2106326,275298,2506189,302341,1227956,47436,803891,4217597,559770,89763,764,323,3282,332,15982,648568,1186028,19383,80434,1069877,513113,1582990,736270,845810,674957,453446,246580,221924,30279,454586,17424,106907,190079,62229,617321,28457,816849,733133,53583,4871831,100.0,100.0
Andhra Pradesh,Hyderabad,17.38971555555556,78.46668888888888,3943323,1542688,1349467,247927,124313,123614,48937,25556,23381,1413297,1045585,367712,1096081,317216,2530026,28308,23029,46157,1315803,2046051,1713405,87522,11446,1268,19560,1929,62142,581509,869721,149034,274653,0,1066289,1066289,230962,596591,685215,811501,517425,558090,45937,229561,124106,288188,439890,91702,583744,200317,746818,799174,123728,3881181,100.0,95.0
Andhra Pradesh,Karimnagar,18.515483193277312,79.43765428571413,3776269,1257238,949591,709757,352481,357276,106745,53495,53250,1876768,1049463,827305,1590304,286464,1899501,360390,756859,168340,591179,3491139,244723,24979,2086,332,312,115,12583,344667,926768,8831,46584,877236,288044,1165280,340372,453505,482842,463403,293493,256633,35312,406211,14175,37212,192965,25539,648422,16190,589283,691495,17534,3763686,100.0,101.0
Andhra Pradesh,Khammam,17.683921325051784,80.67008643892335,2797370,901640,728594,462896,229905,232991,765565,378532,387033,1410062,802906,607156,1215871,194191,1387308,224972,804537,19799,360754,2595321,158887,33463,655,217,459,539,7829,219710,668519,8628,42171,669262,201363,870625,295639,346118,329630,238811,154774,160804,25456,267852,11887,35761,115078,19525,389453,15140,416734,427722,18744,2789541,100.0,101.0
Andhra Pradesh,Krishna,16.143872753151673,81.14805061000413,4517398,1598959,1410759,871063,435412,435651,132464,66734,65730,2048880,1327299,721581,1744978,303902,2468518,150166,1006976,48444,843294,4023678,307043,145598,1393,863,6320,906,31597,632890,1163932,30438,101450,909292,567042,1476334,618101,692968,630603,531821,312753,328454,54728,525079,27969,112568,212111,76037,598166,43264,794346,743696,69493,4485801,100.0,99.0
Andhra Pradesh,Kurnool,15.43759715142429,77.90086836581717,4053463,1246369,880792,737945,370215,367730,82831,42052,40779,2029425,1164122,865303,1757520,271905,2024038,310954,1037302,60791,620378,3328380,670737,33165,737,255,2235,434,17520,195001,816721,10081,56478,783853,306982,1090835,521327,672951,466940,271828,152453,115504,19282,271815,10622,79714,118153,30605,519103,15373,543044,572406,22698,4035943,100.0,99.0
Andhra Pradesh,Mahbubnagar,16.639546224256293,77.98933089244859,4053028,1158386,782260,708954,356099,352855,364269,187035,177234,2082501,1140067,942434,1815643,266858,1970527,569142,931084,57846,524429,3673456,334172,21345,658,290,388,267,22452,136843,757821,6153,60812,848963,161052,1010015,419379,596134,441585,308575,169083,98227,16121,151754,12615,60282,121553,23880,527437,11293,362791,570261,18944,4030576,0.0,98.0
Andhra Pradesh,Medak,17.889304978038055,78.13778901903379,3033288,953406,683731,537947,266413,271534,168985,86574,82411,1442203,837874,604329,1195494,246709,1591085,353221,571129,67642,450211,2637313,342449,34301,1309,554,457,217,16688,163074,604719,8635,47170,593653,195479,789132,324267,503713,481984,373729,201928,127493,16466,232114,14362,69729,119276,28285,430639,15872,349304,482440,23516,3016600,100.0,99.0
Andhra Pradesh,Nalgonda,17.113250515463907,79.16984453608244,3488809,1160757,840262,637385,318359,319026,394279,203876,190403,1741693,976428,765265,1493419,248274,1747116,325224,863131,45124,508214,3249231,188646,35025,937,241,250,132,14347,228818,789225,7715,53777,833504,197433,1030937,369537,518669,471233,367424,238695,196134,27003,286559,18927,44340,143010,23899,545350,15308,464172,588791,19542,3474462,100.0,98.0
Andhra Pradesh,Nizamabad,18.429485849056604,78.07523490566035,2551335,790214,599596,371074,178798,192276,192941,95679,97262,1261076,684320,576756,1055965,205111,1290259,278102,448281,171311,363382,2123426,391596,19653,2357,1847,542,146,11768,186740,545913,5261,35036,565165,155133,720298,269487,421399,338668,396396,223365,141850,13382,212631,10088,46837,102049,23277,385123,9899,308270,428744,20344,2539567,100.0,104.0
Andhra Pradesh,Prakasam,15.489039001601704,80.11665790176184,3397448,1107686,796749,787861,397242,390619,151145,76677,74468,1700567,991842,708725,1463508,237059,1696881,280029,889218,42603,488717,3150195,220654,18775,266,97,204,206,7051,290947,763746,6151,43611,873486,214089,1087575,489805,495556,368919,249034,142026,133627,21976,226045,9071,40847,105940,25076,451056,10365,468022,494689,18557,3390397,100.0,98.0
Andhra Pradesh,Srikakulam,18.570900998697432,84.25874814010675,2703114,857824,637557,255664,125214,130450,166118,81382,84736,1290288,766483,523805,936244,354044,1412826,165317,700833,34479,389659,2666950,9025,18879,193,77,160,106,7724,149554,615432,3988,32280,752752,149684,902436,291793,348354,319244,251521,146721,121213,21031,180824,5264,19494,64087,18802,294830,6316,297418,332230,18598,2695390,100.0,101.0
Andhra Pradesh,Vizianagaram,18.28329696032972,83.45982854198873,2344474,707503,530885,247728,121493,126235,235556,114687,120869,1157962,679289,478673,953215,204747,1186512,212285,557254,27469,360954,2299129,16423,17853,380,114,815,183,9577,140361,527736,4453,24128,592458,157056,749514,250446,300057,257468,186576,115144,103591,27041,168297,5002,28633,61858,13208,236327,7516,278230,265587,16052,2334897,100.0,102.0
Andhra Pradesh,Warangal,18.01752608695651,79.87422028985509,3512576,1179790,885233,616102,307709,308393,530656,268976,261680,1705655,960926,744729,1442197,263458,1806921,401646,758092,43550,502367,3273755,197333,31377,1453,253,569,126,7710,237349,828077,12952,59006,758738,288249,1046987,314252,457529,454322,430242,279234,248942,27663,311837,15727,71400,139404,34782,508632,22196,462819,568508,25094,3504866,100.0,100.0
Andhra Pradesh,West Godavari,16.63297943925236,81.45912990654196,3936966,1379223,1273166,811698,403693,408005,109072,53367,55705,1773112,1199338,573774,1534166,238946,2163854,155275,1061787,33861,522189,3733191,86142,109120,288,209,1578,211,6227,435334,1017568,12050,55613,1007255,248373,1255628,595331,718960,585595,415178,215863,207586,33329,605463,14687,70135,182698,56671,478091,19128,648607,578252,43490,3930739,100.0,100.0
Arunachal Pradesh,Changlang,27.36048479338845,96.37552644628106,148226,44027,29147,0,0,0,53878,27061,26817,62966,39329,23637,50765,12201,85260,39732,4208,496,18530,47683,2134,35969,94,50381,95,11738,132,4762,14593,170,1486,33422,6498,39920,20425,22537,17354,10032,5641,3633,834,13306,1102,6639,2450,434,9224,499,9314,10621,963,148094,0.0,93.0
Arunachal Pradesh,East Kameng,27.371194055944056,93.04741486013997,78690,21599,16850,0,0,0,72400,35266,37134,31710,16424,15286,27123,4587,46980,21835,1063,273,8539,12333,652,37136,36,452,23,27868,190,3583,5318,57,885,14503,5215,19718,11713,10487,8852,6213,4510,2330,142,755,577,2116,1382,262,3378,203,3169,4178,538,78500,0.0,103.0
Arunachal Pradesh,East Siang,28.15382352941176,95.06499226006191,99214,34210,28366,0,0,0,69979,34533,35446,40222,23591,16631,33578,6644,58992,20185,3565,493,15979,27854,2289,18254,69,776,30,49393,549,4866,14231,450,1582,19497,9524,29021,9938,13713,13968,10937,9498,6540,525,6380,2072,7467,4568,943,10557,930,9363,12744,1244,98665,100.0,98.0
Arunachal Pradesh,Kurung Kumey,28.04853351800553,93.24531994459834,92076,20258,16348,0,0,0,90764,44459,46305,38044,18429,19615,24372,13672,54032,27417,2947,833,6847,4859,471,51189,43,121,81,34158,1154,586,3911,95,969,18603,1092,19695,12661,15054,12264,6997,4353,2031,299,189,605,3167,884,156,2988,106,1320,3318,174,90922,0.0,103.0
Arunachal Pradesh,Lohit,27.946785273972623,96.59670770547945,145726,48380,34682,0,0,0,47410,23457,23953,60945,38910,22035,50754,10191,84781,29909,7789,786,22461,99020,3846,10684,210,24452,104,7277,133,6549,17157,312,1471,33599,11372,44971,19306,25179,20643,13070,7612,5180,584,16426,1203,6169,3884,752,11499,631,12215,13372,1121,145593,100.0,91.0
Arunachal Pradesh,Lower Dibang Valley,28.32651730103806,95.76567335640142,54080,18087,13762,0,0,0,25974,12649,13325,22326,14102,8224,19829,2497,31754,9687,3354,233,9052,28915,2247,9213,33,2932,19,10393,328,3068,5932,207,742,12000,3950,15950,5875,7957,7351,5508,3570,2795,85,4410,703,2736,2128,217,5804,346,4345,6616,595,53752,100.0,93.0
Arunachal Pradesh,Lower Subansiri,27.70849297297297,93.96226108108112,83030,29470,24587,0,0,0,72911,35803,37108,30202,17339,12863,22669,7533,52828,13656,1968,435,14143,9551,1482,34402,27,193,13,37085,277,4211,12493,381,1598,18112,5365,23477,8492,10821,11661,9861,7674,5230,295,1063,2002,3921,2973,505,7429,655,7285,9532,1598,82753,100.0,98.0
Arunachal Pradesh,Papum Pare,27.273529716981127,93.54468183962264,176573,65794,55254,0,0,0,117216,56469,60747,65772,41263,24509,51157,14615,110801,14104,1859,1543,48266,57027,6148,84397,310,4768,139,22586,1198,22966,30539,2477,7418,20308,30180,50488,15368,21956,21376,20007,17342,13840,926,3898,6454,5958,8668,1397,22828,4243,23203,27411,3186,175375,100.0,98.0
Arunachal Pradesh,Tawang,27.680683962264148,91.82504245283016,49977,17720,8353,0,0,0,34811,16770,18041,28561,19554,9007,24430,4131,21416,7631,1581,114,19235,11842,787,776,1164,34920,72,349,67,3794,8635,96,494,10730,2452,13182,4904,4730,4029,2140,1989,1379,667,105,895,2356,205,771,2310,247,4824,4036,955,49910,100.0,71.0
Arunachal Pradesh,Tirap,26.94406229508198,95.41470327868862,111975,29313,18661,0,0,0,98372,49365,49007,50169,27545,22624,44262,5907,61806,35967,1811,836,11555,20682,1103,83361,61,778,43,5325,622,3104,16026,98,888,18420,6500,24920,13585,16989,12077,7834,4305,2134,182,963,679,2281,1369,163,6563,216,6118,7182,456,111353,0.0,94.0
Arunachal Pradesh,Upper Siang,28.8309244897959,95.00155765306124,35320,10723,7472,0,0,0,28468,14413,14055,17644,9968,7676,14524,3120,17676,9976,804,591,6273,5261,411,5643,27,2577,7,20967,427,1504,6198,97,392,8569,2182,10751,3952,5584,4915,2935,2211,1349,46,136,430,1415,1031,99,2890,165,2823,3491,502,34893,100.0,89.0
Arunachal Pradesh,Upper Subansiri,28.277196566523585,93.8991435622318,83448,24807,20471,0,0,0,78323,38570,39753,33370,17898,15472,25717,7653,50078,21690,1846,481,9353,13474,521,8779,28,297,11,59449,889,3123,5373,139,750,14542,4672,19214,10219,16118,15339,10348,8017,4276,473,782,569,4629,1435,475,2569,189,3580,3653,609,82559,100.0,100.0
Arunachal Pradesh,West Kameng,27.46486582278483,92.65015750452083,83947,29566,18926,0,0,0,46380,22771,23609,42493,28313,14180,34752,7741,41454,14476,1705,801,25511,31265,1970,8466,328,36087,71,5556,204,7133,14188,202,887,17889,6306,24195,8836,10317,8428,5633,3987,2693,299,348,1299,3081,1045,434,6641,371,8634,7942,867,83743,100.0,82.0
Arunachal Pradesh,West Siang,28.106296920289843,94.53510344202908,112274,36777,27969,0,0,0,92783,45746,47037,49177,29156,20021,43000,6177,63097,28852,1384,298,18643,15881,2218,29969,577,3311,49,60005,264,6115,14204,303,1300,22272,8503,30775,14227,17675,15908,11441,8418,6030,521,2129,1964,4771,4023,869,7725,621,9593,10217,1623,112010,100.0,93.0
Assam,Barpeta,26.427872264631056,90.97912010178116,1693622,499038,398020,95320,49165,46155,27344,13530,13814,561824,445297,116527,439453,122371,1131798,205259,98946,30342,227277,492966,1198036,1020,112,49,399,14,1026,50806,84804,2078,25286,447189,52192,499381,210607,307884,300845,121924,87377,46947,8007,181352,5560,66059,24913,4125,143945,3522,55319,151699,3629,1692596,100.0,95.0
Assam,Bongaigaon,26.45012521994133,90.6734296187684,738804,237114,196964,82784,42513,40271,18835,9377,9458,255806,197542,58264,191671,64135,482998,83442,47406,9485,115473,359145,371033,5924,384,236,871,9,1202,29937,49866,2523,12959,181923,38470,220393,93591,138294,133643,55924,35491,20221,2267,97820,5837,26375,16579,3604,70455,4174,36350,78595,4536,737602,100.0,97.0
Assam,Cachar,24.815570668693017,92.86849650455927,1736617,639946,534182,264897,136051,128846,17569,8736,8833,608062,469752,138310,471259,136803,1128555,120356,68664,24466,394576,1038985,654816,37635,280,341,1673,98,2789,62135,140205,5316,37541,346227,88933,435160,256855,447993,379469,156156,79766,45341,12951,93297,8700,57825,22647,8808,149865,6365,99887,168487,9814,1733828,100.0,96.0
Assam,Darrang,26.58463215962442,92.04141338028155,928500,268666,218373,40260,20566,19694,8419,4300,4119,324843,246864,77979,241456,83387,603657,129456,81617,10542,103228,327322,597392,1688,431,57,724,19,867,17676,45444,1166,12084,268517,20189,288706,119027,163277,161153,59039,47398,22267,3079,109858,3533,52657,13662,2954,67484,2046,30616,72141,1703,927633,100.0,95.0
Assam,Dhemaji,27.586533438485816,94.71336908517353,686133,237761,185267,44225,23006,21219,325560,165449,160111,316800,186577,130223,201364,115436,369333,231937,19181,7224,58458,655052,13475,8711,297,911,167,6315,1205,16547,28195,1192,10410,211758,16504,228262,79107,138838,136371,80804,55399,28006,2868,83663,3504,41278,12293,2358,53184,1764,25776,57166,1624,684928,100.0,95.0
Assam,Dibrugarh,27.30612284482757,95.0998282327587,1326335,491361,393170,58876,30517,28359,102871,51835,51036,560557,368013,192544,391597,168960,765778,135194,61209,14362,349792,1198401,64526,52968,2261,4673,1055,46,2405,76292,136685,8817,34479,299852,77163,377015,143189,243607,301287,139813,89500,59380,6984,172503,21112,70499,44664,8009,122011,14742,121737,139869,9849,1323930,100.0,96.0
Assam,Goalpara,26.017277777777807,90.59869891598912,1008183,304302,259275,45094,22999,22095,231570,116013,115557,362573,267118,95455,266376,96197,645610,126549,75828,14346,145850,347878,579929,77862,771,194,477,103,969,21455,78641,1364,13524,228610,39504,268114,124700,213510,183904,73683,39885,18294,3464,113964,4112,42290,15292,2747,87967,2183,42628,93630,2916,1007214,100.0,96.0
Assam,Golaghat,26.377219709794485,93.82583397823468,1066888,396475,325289,62298,31807,30491,111765,56420,55345,479928,309104,170824,331210,148718,586960,190590,66616,15068,207654,917426,90312,50582,1131,3863,530,1347,1697,40889,82345,3073,17636,292893,34190,327083,117393,223902,261192,111145,66197,36887,4084,157029,9295,59992,27300,5124,93847,5146,70930,103909,4938,1065191,100.0,96.0
Assam,Hailakandi,24.457496089385486,92.59154664804475,659296,226836,180530,70659,36369,34290,691,354,337,214240,170792,43448,165193,49047,445056,65673,31248,7313,110006,251194,397653,8480,84,490,247,636,512,11035,44143,1211,10615,159215,16202,175417,88596,177984,139029,50056,28504,11608,4265,27808,2583,17228,5589,3256,49610,880,19998,55345,2479,658784,100.0,95.0
Assam,Jorhat,26.76244824016563,94.30197722567289,1092256,432335,362594,88665,45194,43471,139971,70795,69176,498618,320746,177872,338635,159983,593638,145885,53153,31543,268037,1008219,54684,21051,1540,2378,719,578,3087,71639,122063,5651,26357,286330,80824,367154,99454,201680,295444,128050,97025,62608,8433,164118,16081,53465,44159,7387,114237,11198,92598,128081,6457,1089169,100.0,96.0
Assam,Kamrup,26.170939452054807,91.58863273972592,1517542,550219,445100,107827,55237,52590,182038,92094,89944,628954,428492,200462,421244,207710,888588,185803,99522,69106,274523,877495,601784,33297,319,185,1330,55,3077,70272,122191,3109,23468,390596,43849,434445,163849,290097,353861,154831,118849,55011,6444,199425,10052,113039,34461,8214,152132,4861,90941,164899,4553,1514465,100.0,95.0
Assam,Karbi Anglong,26.08966454598031,93.11536570271832,956313,314253,242961,44961,23436,21525,538738,272460,266278,383441,246193,137248,260482,122959,572872,223020,60952,9861,89608,766000,20290,157789,370,6260,397,3568,1639,18763,53918,1923,11340,215691,37185,252876,109324,212224,199289,93137,40602,18225,3426,97148,3934,49689,13699,4399,69985,2124,56689,78269,3885,954674,100.0,95.0
Assam,Karimganj,24.69660712250711,92.3679498575498,1228686,435942,359355,157890,81384,76506,1940,994,946,399171,319798,79373,293392,105779,829515,94348,67033,17435,220355,521962,692489,11990,114,446,524,110,1051,28261,70951,1933,24699,261945,32695,294640,198059,333885,257931,76685,39637,21408,7903,38218,3757,24956,7289,4786,94620,1529,38570,105749,6343,1227635,100.0,96.0
Assam,Kokrajhar,26.497246635730868,90.13997470997688,887142,275220,214085,29570,15386,14184,278665,139579,139086,341131,236322,104809,253110,88021,546011,156753,56330,12423,115625,529068,252271,101091,93,1718,396,123,2382,15089,41373,1218,14063,204896,17115,222011,116899,166013,154715,78788,39571,17287,2733,115712,2996,17083,12191,2751,70925,2167,32320,75903,2227,884760,100.0,96.0
Assam,Lakhimpur,27.14128805970149,94.0775949253732,1042137,375552,307934,81840,41689,40151,249426,126716,122710,429995,282250,147745,283533,146462,612142,239377,43922,10983,135713,797130,193476,46217,412,1074,250,2410,1168,32104,60296,1948,15011,293239,34694,327933,126950,212080,217497,107326,82885,44212,4731,133214,6904,57507,25699,3071,86234,3851,45689,92394,3089,1040969,100.0,97.0
Assam,Nagaon,26.26462170626351,92.9306191144708,2823768,921850,788866,266350,136473,129877,115153,57759,57394,979998,766728,213270,734993,245005,1843770,346123,196174,38122,399579,1225246,1563203,26844,3036,1073,1162,61,3143,89206,195631,5121,45956,674999,124186,799185,392616,638088,576214,199792,115864,66994,10351,333149,13979,90067,47693,10616,246649,8180,127523,271238,13973,2820625,100.0,96.0
Assam,Nalbari,26.46323767605632,91.40598521126763,771639,293184,238587,60216,30654,29562,23364,11692,11672,267623,210202,57421,196773,70850,504016,58070,34984,19302,155267,491582,277488,429,62,27,1004,9,1038,37849,68313,1631,12360,210706,28238,238944,75866,141690,192771,81507,71734,39368,3693,107774,4785,60699,18810,3749,80390,2667,45938,86710,2571,770601,100.0,95.0
Assam,Sonitpur,26.73514926829268,92.85197804878044,1924110,620525,488047,109130,55817,53313,232207,117685,114522,770606,537195,233411,558325,212281,1153504,249123,114865,25719,380899,1422824,350536,138166,1363,5088,1003,221,4909,70047,133368,4358,31254,483325,64528,547853,216097,416218,377653,141373,90385,49901,6412,275119,11760,76121,39796,6865,147652,7942,106909,163277,8760,1919201,100.0,96.0
Assam,Tinsukia,27.53549291139241,95.69055949367085,1327929,453449,344873,37688,19443,18245,82066,41769,40297,557196,366623,190573,410188,147008,770733,149482,47756,13241,346717,1181347,48373,76877,1999,16228,837,395,1873,70471,161718,5135,27948,290704,90910,381614,150893,266717,276292,109805,61040,38152,7353,168890,13323,47780,31363,5236,111267,8908,111738,124737,8234,1326056,100.0,95.0
Bihar,Araria,26.211528119180603,87.30766554934816,2811569,727643,468125,382654,198247,184407,38848,19887,18961,1069893,708391,361502,696410,373483,1741676,222913,691947,24367,130666,1593525,1207442,4116,371,187,1910,63,3955,17004,43290,2561,29796,659061,44213,703274,625357,426625,206161,112955,68177,39627,6938,279254,5041,125606,31983,8513,225586,1645,40387,240730,6631,2807614,0.0,92.0
Bihar,Aurangabad,24.774291867469877,84.45986024096379,2540073,868733,597269,612064,316161,295903,1033,500,533,837770,599157,238613,480286,357484,1702303,178525,426096,40652,192497,2291133,237353,2218,295,334,775,19,7946,24106,44456,2362,31168,428291,49006,477297,559512,482199,302662,253142,136783,91371,8329,195301,7145,102946,32335,8511,221469,2292,45871,235248,5268,2532127,100.0,93.0
Bihar,Aurangabad,24.774291867469877,84.45986024096379,3701282,1430936,1072901,539368,277228,262140,143366,73876,69490,1575079,1015864,559215,1446636,128443,2126203,554518,396630,28033,595898,2545438,786677,15991,5142,309093,30981,1005,6955,246324,589477,23258,69937,551789,427343,979132,381695,686271,422964,537936,310762,253253,19101,192027,33322,94872,230188,34570,454647,43514,403594,526483,37266,3694327,100.0,92.0
Maharashtra,Aurangabad,20.0979228832952,75.32072196796334,2540073,868733,597269,612064,316161,295903,1033,500,533,837770,599157,238613,480286,357484,1702303,178525,426096,40652,192497,2291133,237353,2218,295,334,775,19,7946,24106,44456,2362,31168,428291,49006,477297,559512,482199,302662,253142,136783,91371,8329,195301,7145,102946,32335,8511,221469,2292,45871,235248,5268,2532127,100.0,93.0
Maharashtra,Aurangabad,20.0979228832952,75.32072196796334,3701282,1430936,1072901,539368,277228,262140,143366,73876,69490,1575079,1015864,559215,1446636,128443,2126203,554518,396630,28033,595898,2545438,786677,15991,5142,309093,30981,1005,6955,246324,589477,23258,69937,551789,427343,979132,381695,686271,422964,537936,310762,253253,19101,192027,33322,94872,230188,34570,454647,43514,403594,526483,37266,3694327,100.0,92.0
Bihar,Banka,24.832355642023337,86.8664916342413,2034763,590961,374360,247858,129663,118195,90432,45901,44531,771080,517817,253263,374097,396983,1263683,172440,462614,26680,109346,1772655,250925,6138,139,113,94,1035,3664,15459,62359,1704,22300,425604,18492,444096,408188,386707,196305,120653,63103,35767,3922,159201,3258,78757,24398,6235,170898,1339,32859,181116,3983,2031099,0.0,91.0
Bihar,Begusarai,25.54302613168723,86.12560144032932,2970541,918507,630166,432270,227481,204789,1597,848,749,938182,715345,222837,591811,346371,2032359,146035,430870,58167,303110,2554330,407348,2209,402,229,276,57,5690,49493,120373,4644,43127,594377,139248,733625,577601,484502,291877,207136,144783,101836,14599,295852,9821,106532,41377,13978,309910,4767,76761,334335,10447,2964851,100.0,89.0
Bihar,Bhagalpur,25.277192885375477,87.04213814229242,3037766,937669,635397,318569,169667,148902,67180,35545,31635,983528,740056,243472,534129,449399,2054238,135161,475228,60461,312678,2487866,537098,3556,415,180,1050,32,7569,63241,174534,6764,46929,522527,130634,653161,614644,524322,300767,247079,154643,118843,16119,220531,8644,131976,47618,13542,284153,8210,117040,308044,10349,3030197,100.0,88.0
Bihar,Bhojpur,25.50666439393939,84.49407803030304,2728407,973486,625665,425402,222716,202686,13977,7363,6614,822493,640283,182210,512009,310484,1905914,190896,364875,47985,218737,2518216,197819,2165,544,647,1472,48,7496,45763,62153,3661,34658,434559,77368,511927,581580,605307,367059,313509,163303,131137,10630,206776,7391,119372,43689,11934,246774,4227,87879,268330,9622,2720911,100.0,91.0
Bihar,Buxar,25.48593018867924,84.08808081760995,1706352,593544,396263,251737,131821,119916,26824,14102,12722,538322,402180,136142,328547,209775,1168030,132472,251790,26122,127938,1591454,105423,2125,248,5090,97,57,1858,27362,46760,1784,19324,299252,35405,334657,331675,420187,256124,178044,89306,64117,5224,137996,5341,78643,26325,7107,162604,2034,48405,174119,4408,1704494,100.0,92.0
Bihar,Darbhanga,26.146187719298258,85.97387352472099,3937385,1125566,691068,615688,322327,293361,2772,1361,1411,1223640,947927,275713,731347,492293,2713745,236673,642115,44846,300006,3042729,881476,3534,832,245,236,101,8232,59510,127442,6280,53205,907174,95539,1002713,672797,490534,332382,224622,152540,129597,26073,320695,10325,199508,52586,17179,407567,5197,80085,440719,15973,3929153,0.0,91.0
Bihar,Gaya,24.7266541547278,84.94291217765044,4391418,1368803,928810,1334351,683943,650408,3098,1635,1463,1664062,1076170,587892,1007057,657005,2727356,370759,783505,87178,422620,3876395,488121,3943,913,870,1723,108,19345,57738,112617,6856,57011,696289,111282,807571,902272,757690,447480,342254,191824,131163,12047,294227,11827,161992,59202,16741,356281,7865,107970,383973,10951,4372073,100.0,94.0
Bihar,Gopalganj,26.44874364161851,84.34636127167629,2562012,793905,589093,320064,159265,160799,60807,29833,30974,728201,539586,188615,363111,365090,1833811,208959,338666,26049,154527,2119262,436057,2463,271,167,133,28,3631,31193,69375,3707,33596,515925,38133,554058,540603,470828,291624,223776,123249,79109,7690,312727,9508,154764,51902,13560,296491,3571,61380,316314,6263,2558381,100.0,102.0
Bihar,Jamui,24.78418380462726,86.26316298200514,1760405,534385,324203,302649,155849,146800,78793,40185,38608,727571,452288,275283,445352,282219,1032834,156491,331466,105637,133977,1525746,217621,8443,162,159,87,3438,4749,12984,32633,1839,22414,325909,30851,356760,420472,317612,153973,104211,56137,29633,3439,113424,4842,51172,18411,8130,147950,1341,27056,159792,3712,1755656,0.0,92.0
Bihar,Jehanabad,25.155679045643165,84.9208124481328,1125313,374412,244469,222974,115034,107940,1285,667,618,365378,266423,98955,251690,113688,759935,86108,179519,15075,84676,1045117,75742,691,148,248,60,58,3249,15507,27641,1106,11302,186660,28132,214792,211761,165906,117558,112966,68748,45519,3539,69637,2522,49416,13682,3263,94340,1251,32086,100130,2527,1122064,100.0,92.0
Bihar,Katihar,25.56565356037151,87.70466083591326,3071029,762256,517934,263100,136429,126671,179971,92190,87781,1013566,760522,253044,667602,345964,2057463,168857,672291,20577,151841,1684589,1365645,8659,2754,212,507,2141,6522,32570,60900,2941,27263,668232,69838,738070,472616,444260,237243,133811,88498,57114,11896,285976,5118,132058,35004,8276,223358,2847,60110,239686,8052,3064507,0.0,92.0
Bihar,Khagaria,25.53558891454964,86.56593256351037,1666886,461153,306875,247161,130191,116970,675,352,323,560805,398216,162589,306283,254522,1106081,104517,325731,20816,109741,1486989,175588,1253,143,79,86,115,2633,15401,40641,1580,21654,373696,21007,394703,350601,233494,130004,100555,65931,38697,5969,99898,3120,56603,14047,5031,149998,1113,31220,159866,4837,1664253,0.0,89.0
Bihar,Kishanganj,26.324336758321294,87.95045007235886,1690400,439921,305135,113118,57964,55154,64224,32506,31718,529064,421192,107872,384416,144648,1161336,107862,321867,11633,87702,531236,1149095,5783,398,183,1476,28,2201,11715,58718,1093,14073,401793,43357,445150,356401,235779,89025,42778,25989,15386,3761,177516,2436,51858,19539,4204,122353,1022,28736,130592,4035,1688199,0.0,95.0
Bihar,Lakhisarai,25.183449321266963,86.12825701357468,1000912,305182,202088,153209,80069,73140,8333,4247,4086,326576,240494,86082,201866,124710,674336,78532,159970,13546,74528,956396,40886,487,140,52,78,52,2821,12938,44491,1186,8862,175882,31763,207645,172076,149312,111684,85807,48001,27261,3814,49052,2415,28996,9577,2869,90531,747,31048,95917,2517,998091,100.0,90.0
Bihar,Madhepura,25.77341929460581,86.8978443983403,2001762,517666,316911,346275,179337,166938,12532,6442,6090,777546,496046,281500,443507,334039,1224216,190809,484062,16347,86328,1753829,241760,1342,170,60,133,81,4387,12302,23236,1397,23309,486278,24000,510278,340813,189431,114474,99437,79891,44955,6509,169936,4560,74766,21254,5950,171436,1231,23209,182773,5387,1997375,0.0,91.0
Bihar,Madhubani,26.41380538172716,86.16328360450552,4487379,1340085,815253,587158,303389,283769,3990,2056,1934,1636938,1105947,530991,1074091,562847,2850441,396880,940642,54934,244482,3652168,818912,3262,564,328,442,169,11534,47090,113281,5319,65548,1047552,41234,1088786,783888,771417,520875,303114,170563,137780,11352,416574,11636,300530,59254,19016,452569,4200,73851,486531,14946,4475845,0.0,93.0
Bihar,Munger,25.198537962962963,86.54173672839504,1367765,473741,328076,183846,97195,86651,21404,10995,10409,426658,327453,99205,233402,193256,941107,45953,196449,16690,167566,1252319,110416,1815,338,95,145,61,2576,49141,90461,2653,17946,222281,85782,308063,226699,158699,146414,147152,101907,64469,4394,112707,3755,56958,24259,6558,138260,2838,69973,149671,4853,1365189,100.0,88.0
Bihar,Muzaffarpur,26.18664417177915,85.32745092024543,4801062,1487117,1022115,751975,393135,358840,5979,3124,2855,1547586,1195308,352278,910304,637282,3253476,273436,769001,65253,439896,4032773,745546,5149,933,288,382,98,15893,87796,180651,10290,73012,998694,120700,1119394,1092952,743623,419433,299475,194920,138916,14475,548802,23333,259307,94249,30120,499073,11643,172027,547479,18286,4785169,100.0,90.0
Bihar,Nalanda,25.229345508982053,85.48053113772461,2877653,919558,600375,607672,315240,292432,1442,728,714,1045420,703405,342015,740949,304471,1832233,221240,534021,52585,237574,2669775,198033,1978,393,414,561,64,6435,43761,101378,4156,43848,514141,102522,616663,581978,486266,320839,274556,177358,133032,11159,121583,7955,81505,29239,12973,250849,3720,87070,273472,9650,2871218,100.0,92.0
Bihar,Nawada,24.825708836206903,85.61594568965519,2219146,659474,431538,565112,290050,275062,2045,997,1048,817041,539439,277602,508509,308532,1402105,216400,397505,40018,163118,1964620,244394,1299,250,176,279,80,8048,20522,31162,1841,28411,379551,45323,424874,601011,368649,195072,161127,95943,64585,3130,75606,3991,57986,15948,5805,172239,1322,34020,182748,4704,2211098,0.0,94.0
Bihar,Pashchim Champaran,27.16064352201258,84.30265911949685,3935042,1091226,668255,553944,289191,264753,250046,127680,122366,1478947,999282,479665,797544,681403,2456095,217539,998833,38691,223884,3047427,865090,8469,926,1337,296,1895,9602,38414,57546,3495,41143,839514,96620,936134,1053481,543965,250243,159563,98732,70669,6035,425249,10911,183497,48435,12934,346729,3094,69056,371137,11474,3925440,0.0,91.0
Bihar,Patna,25.40297114503818,85.3198433587787,5838465,2028047,1431632,920918,482088,438830,9069,4717,4352,1881886,1436411,445475,1371267,510619,3956579,271216,658203,85349,867118,5356075,439952,12551,4803,1062,2151,203,21668,321307,546859,40692,132582,657991,552103,1210094,1244842,1095655,920051,698351,463361,452340,46126,430595,49821,227469,176114,38617,590486,61156,453344,662665,33562,5816797,100.0,90.0
Bihar,Purba Champaran,26.68129336734693,85.00382155612242,5099371,1407603,869354,649726,340363,309363,12461,6454,6007,1737539,1260774,476765,1132789,604750,3361832,349032,1057417,46164,284926,4086453,990349,4865,668,878,464,104,15590,52358,74979,7719,70258,1142260,101565,1243825,1280809,982506,450631,241118,121594,68781,5149,611212,19282,357603,78531,24362,546993,5686,96546,585210,13855,5083781,0.0,90.0
Bihar,Purnia,25.81714801901739,87.40447606973065,3264619,805261,527065,390991,203201,187790,139490,71391,68099,1143318,803275,340043,776385,366933,2121301,197424,745015,28840,172039,1989420,1255641,7989,614,353,1450,650,8502,33688,86058,4170,33664,712847,85749,798596,668690,360243,184327,119259,83226,59996,11116,291919,8390,126408,40178,9510,241206,4252,63200,258284,7568,3256117,0.0,92.0
Bihar,Rohtas,24.99170460829495,83.9350762672811,2959918,1061783,738049,549546,286596,262950,31650,16399,15251,924879,707939,216940,542439,382440,2035039,218087,405544,48512,252736,2645415,300487,2889,2569,1584,252,537,6185,41659,114893,4594,36279,512383,95678,608061,535187,548971,399053,333053,194928,161555,16006,224824,10819,123491,49892,12400,291988,4727,106218,312557,8169,2953733,100.0,92.0
Bihar,Saharsa,25.821270696721303,86.54670819672135,1900661,506374,298622,317249,164518,152731,6009,3101,2908,649898,456724,193174,363326,286572,1250763,164600,356833,18651,109814,1629254,266620,1292,197,60,109,8,3121,21651,41342,1668,19415,432651,38046,470697,348300,194897,104182,90182,64560,47051,6016,129847,3824,60611,20489,4957,155660,1688,30518,166317,5700,1897540,0.0,91.0
Bihar,Samastipur,25.793205563909765,85.94833323308269,4261566,1293575,849305,803128,417944,385184,1884,975,909,1343400,1037576,305824,907433,435967,2918166,299039,721629,47917,274815,3800598,452370,2126,554,292,231,112,5283,46123,88021,5379,50918,1012979,43486,1056465,781038,710468,438908,284082,186153,129933,19126,458268,10621,183813,56464,16741,412873,4320,84248,441421,11807,4256283,100.0,91.0
Bihar,Saran,25.89656077844312,84.82266287425155,3951862,1285767,871687,474066,242976,231090,36786,18322,18464,1040231,857660,182571,545520,494711,2911631,232097,493461,42103,272570,3534772,406449,2330,371,229,322,107,7282,51822,94787,4509,37442,701323,76299,777622,793945,693465,433759,361171,213251,148065,9848,431759,10948,243581,68604,15821,398651,5009,128169,423960,9488,3944580,100.0,95.0
Bihar,Sheikhpura,25.12472436548223,85.77839390862943,636342,196431,132245,131115,67582,63533,617,305,312,224655,151569,73086,148002,76653,411687,54511,109696,9917,50531,596102,37653,313,75,41,43,31,2084,6803,20065,631,8873,108293,24345,132638,129673,110525,59529,52860,33856,19676,3399,33652,1728,20176,6933,2163,57043,635,16279,61568,2362,634258,100.0,93.0
Bihar,Sheohar,26.458380748663107,85.29539411764709,656246,171645,112053,96655,51089,45566,318,177,141,216372,166693,49679,137804,78568,439874,38727,136334,9119,32192,552492,99342,522,216,73,52,44,3505,3983,10004,478,6698,158484,7516,166000,128209,91277,37063,25657,16031,10091,661,73447,1410,56957,7678,2267,79360,430,11722,83296,1669,652741,0.0,89.0
Bihar,Sitamarhi,26.56570069686413,85.61172491289203,3423574,885188,551606,405714,213624,192090,2989,1585,1404,1114583,865929,248654,753645,360938,2308991,216012,635907,37932,224732,2672311,740101,2897,261,253,188,20,7543,39465,66263,3460,42461,807294,49670,856964,733380,394422,196321,136500,92783,70549,11936,317432,7292,252121,38576,12246,318780,3144,61089,340890,9864,3416031,0.0,90.0
Bihar,Siwan,26.1736372013652,84.33766552901022,3330464,1115906,814269,386685,195965,190720,87000,43472,43528,932416,730396,202020,462104,470312,2398048,264928,376344,31244,259900,2712635,608282,2618,369,407,359,86,5708,42384,52935,3834,37833,632514,41858,674372,689880,612635,445257,355277,186817,119164,12091,382782,10891,181860,64065,14390,378819,4088,74071,401299,8090,3324756,100.0,99.0
Bihar,Supaul,26.28157893772896,86.78496465201461,2229076,647672,385611,354249,182545,171704,10168,5242,4926,877682,551718,325964,472649,405033,1351394,201882,554271,22555,98974,1809936,409251,3758,271,136,546,42,5136,12111,51028,1845,25078,572287,27815,600102,467768,269737,157787,99530,69665,45726,5850,192734,4064,107152,21885,6271,195500,1099,26559,207212,5441,2223940,0.0,93.0
Bihar,Vaishali,25.8134703180212,85.39247597173153,3495021,1152576,774164,738031,387827,350204,2274,1232,1042,1060344,858648,201696,716006,344338,2434677,255017,502637,36958,265732,3152346,333980,2203,707,362,246,71,5106,47300,70001,4810,39564,699317,51494,750811,810191,487594,370247,291392,178320,124448,9094,397202,11316,200083,60246,15248,365200,4366,101269,390123,9675,3489915,100.0,89.0
Chandigarh,Chandigarh,30.7426,76.75872465753424,1055450,465346,340092,199086,106356,92730,0,0,0,404136,328159,75977,385929,18207,651314,2578,1687,4799,395072,852574,51447,8720,138329,1160,1960,246,1014,168344,231204,44283,78113,8911,289456,298367,80406,118667,114209,124707,98786,174528,20188,135055,60494,65936,109701,14027,148411,67323,193932,209783,47345,1054436,100.0,82.0
Chhattisgarh,Bastar,19.393866751269048,81.52895126903546,1413199,382335,268528,37963,18815,19148,931780,456841,474939,726531,404364,322167,394824,331707,686668,284472,287828,10821,143410,1277975,12413,27951,2099,985,3466,86925,1385,22075,157646,1782,9042,316425,54894,371319,183667,178766,139330,60936,57413,32895,3227,192012,4227,37956,32802,2574,51885,4002,50155,58619,4160,1411814,0.0,102.0
Chhattisgarh,Bilaspur,22.356942982456143,81.99770350877188,381956,155599,132021,98989,50271,48718,10693,5485,5208,205871,111543,94328,103406,102465,176085,127169,4138,2561,72003,371973,6984,236,2387,113,10,7,246,17262,79146,1574,6281,152458,11987,164445,35817,59489,53515,64730,45695,25474,3241,5387,6573,14900,11397,7650,47001,2779,61392,66935,12284,381710,100.0,98.0
Chhattisgarh,Bilaspur,22.356942982456143,81.99770350877188,2663629,932474,664086,552992,281221,271771,498469,248172,250297,1203197,715467,487730,826568,376629,1460432,276691,572292,21658,332556,2540763,57973,20745,6373,2979,2357,29122,3317,77727,519704,8566,30892,549632,188174,737806,382091,407692,337793,189296,152838,134637,19654,345789,13137,92443,84851,9398,157089,17978,193337,177334,10847,2660312,100.0,97.0
Himachal Pradesh,Bilaspur,31.3780422907489,76.65316079295157,381956,155599,132021,98989,50271,48718,10693,5485,5208,205871,111543,94328,103406,102465,176085,127169,4138,2561,72003,371973,6984,236,2387,113,10,7,246,17262,79146,1574,6281,152458,11987,164445,35817,59489,53515,64730,45695,25474,3241,5387,6573,14900,11397,7650,47001,2779,61392,66935,12284,381710,100.0,98.0
Himachal Pradesh,Bilaspur,31.3780422907489,76.65316079295157,2663629,932474,664086,552992,281221,271771,498469,248172,250297,1203197,715467,487730,826568,376629,1460432,276691,572292,21658,332556,2540763,57973,20745,6373,2979,2357,29122,3317,77727,519704,8566,30892,549632,188174,737806,382091,407692,337793,189296,152838,134637,19654,345789,13137,92443,84851,9398,157089,17978,193337,177334,10847,2660312,100.0,97.0
Chhattisgarh,Dhamtari,20.554912627291245,81.7569195519348,799781,303924,242909,58581,28887,29694,207633,102058,105575,402895,226382,176513,335368,67527,396886,135435,182602,7310,77548,777188,10425,2644,1196,667,3612,3685,364,14568,148926,1016,4804,168689,41792,210481,143128,148544,120146,65196,58875,31319,5096,119931,3069,14229,30621,2391,50012,2686,67737,55660,3257,799417,100.0,101.0
Chhattisgarh,Durg,21.194463849287164,81.33181639511197,3343872,1284612,1018766,458040,229067,228973,397416,196008,201408,1496805,921729,575076,1206793,290012,1847067,392341,560415,22565,521484,3129745,83499,24304,24276,19587,17209,42569,2683,129193,614109,16141,51289,533448,349741,883189,463598,573291,497668,309508,286244,202424,30555,489008,28840,89110,177048,16940,271429,36672,343369,315664,27295,3341189,100.0,99.0
Chhattisgarh,Jashpur,22.77286167664669,83.8703962075848,851669,280656,214759,48844,24317,24527,530378,262731,267647,487360,263645,223715,291349,196011,364309,226866,197558,7553,55383,629509,15336,189588,474,467,694,14835,766,6628,76783,567,5755,205670,20722,226392,120768,137681,127299,64188,50562,26161,3166,100725,2442,12309,15547,1633,32732,1252,20512,35940,1575,850903,100.0,101.0
Chhattisgarh,Korba,22.491712499999995,82.57604326923074,1206640,433391,315368,124679,63446,61233,493559,246323,247236,521186,333329,187857,350314,170872,685454,113071,221806,7899,178410,1133176,30195,21059,3666,897,753,15649,1245,43357,202380,4544,18004,206598,126055,332653,178191,188303,168387,89167,83166,61215,11792,162148,8677,23166,55579,4118,80152,11842,95963,90312,6042,1205395,100.0,97.0
Chhattisgarh,Koriya,23.50412776859501,82.12515636363635,658917,229923,167900,54776,27682,27094,304280,152659,151621,307071,185483,121588,173057,134014,351846,118498,94648,4830,89095,604259,25878,9398,1391,84,1155,15474,1278,25605,80023,1667,7609,121852,59763,181615,143413,109639,87969,47127,38677,26802,4134,67318,3402,19360,26365,2414,45265,3527,38765,50432,2753,657639,100.0,97.0
Chhattisgarh,Mahasamund,21.223727037773354,82.65925427435384,1032754,364089,273874,139581,68968,70613,279896,137339,142557,499260,291858,207402,340802,158458,533494,139199,278073,6135,75853,1008061,12570,5284,2941,521,1495,1417,465,13200,212487,961,5614,274793,35774,310567,179770,194739,152183,78583,57949,33357,5951,175231,3546,13649,31472,2205,61420,2279,68012,65540,1915,1032289,100.0,102.0
Chhattisgarh,Raigarh,22.008265068493166,83.27797698630134,1493984,542756,408883,224942,112111,112831,505609,250473,255136,690167,429211,260956,484875,205292,803817,208313,323788,9959,148107,1422986,17332,47653,2117,781,409,1782,924,27771,297308,3342,13857,354278,66638,420916,246480,260661,210964,130700,93340,66358,8804,225249,5979,29814,50302,5270,86142,6693,98784,96724,5312,1493060,100.0,99.0
Chhattisgarh,Raigarh,22.008265068493166,83.27797698630134,2634200,1059692,880302,134952,67980,66972,305125,153657,151468,1072969,753843,319126,858825,214144,1561231,206975,191182,32919,641893,2239370,227465,17452,7477,121791,12260,1159,7226,328277,547206,38570,96301,581868,377160,959028,231263,407662,335886,441072,221410,204507,19940,136247,43536,86139,158119,85087,280834,53397,374021,453122,87201,2626974,100.0,96.0
Maharashtra,Raigarh,18.453257637845976,73.0090609418579,1493984,542756,408883,224942,112111,112831,505609,250473,255136,690167,429211,260956,484875,205292,803817,208313,323788,9959,148107,1422986,17332,47653,2117,781,409,1782,924,27771,297308,3342,13857,354278,66638,420916,246480,260661,210964,130700,93340,66358,8804,225249,5979,29814,50302,5270,86142,6693,98784,96724,5312,1493060,100.0,99.0
Maharashtra,Raigarh,18.453257637845976,73.0090609418579,2634200,1059692,880302,134952,67980,66972,305125,153657,151468,1072969,753843,319126,858825,214144,1561231,206975,191182,32919,641893,2239370,227465,17452,7477,121791,12260,1159,7226,328277,547206,38570,96301,581868,377160,959028,231263,407662,335886,441072,221410,204507,19940,136247,43536,86139,158119,85087,280834,53397,374021,453122,87201,2626974,100.0,96.0
Chhattisgarh,Raipur,20.88603153846152,82.20032759615388,4063872,1493158,1136591,724250,362284,361966,476446,235271,241175,1757664,1099964,657700,1259138,498526,2306208,383279,708993,34078,631314,3881485,103038,23181,16707,8397,17137,10680,3247,166505,728556,20261,59523,673499,395001,1068500,618508,664470,552373,313247,267265,227382,31483,549069,30572,114738,177517,18806,295646,39381,378113,340237,25785,4060625,100.0,98.0
Chhattisgarh,Surguja,23.32719278728607,83.23582493887531,2359886,694686,493255,115652,58281,57371,1300628,652799,647829,1155807,649888,505919,622589,533218,1204079,465287,523356,12643,154521,2126195,81442,97432,2303,1287,623,48295,2309,29433,253131,2737,18983,525596,65167,590763,364452,338509,281260,135374,105992,64607,9524,277773,8096,62468,56480,4330,108569,6399,74614,118767,5868,2357577,100.0,98.0
Daman and Diu,Daman,20.431616666666677,72.8392366071429,191173,104316,46032,4262,2224,2038,15240,7702,7538,105521,94502,11019,101717,3804,85652,1845,481,409,102786,171537,16087,2618,169,216,244,79,223,25844,49249,1316,4543,10006,61073,71079,8957,28094,30406,26991,14170,9128,1995,14642,3163,10502,14167,1718,39565,2827,28433,43171,1888,190950,100.0,53.0
Daman and Diu,Junagadh,20.72568199498111,70.83985639899612,2743082,1046981,795837,265793,136319,129474,55571,28463,27108,1123709,801859,321850,942709,181000,1619373,367311,333996,9645,412757,2397056,334858,2586,1110,1291,3841,77,2263,144561,498326,6628,26991,489237,287506,776743,271762,700258,294811,311849,137505,139957,30127,189600,17447,60302,195597,15291,364428,15979,318954,406578,26859,2740819,100.0,95.0
Gujarat,Junagadh,20.929523011609785,70.54733890140345,2743082,1046981,795837,265793,136319,129474,55571,28463,27108,1123709,801859,321850,942709,181000,1619373,367311,333996,9645,412757,2397056,334858,2586,1110,1291,3841,77,2263,144561,498326,6628,26991,489237,287506,776743,271762,700258,294811,311849,137505,139957,30127,189600,17447,60302,195597,15291,364428,15979,318954,406578,26859,2740819,100.0,95.0
Goa,North Goa,15.548723418714054,73.80667997909038,818008,351738,311322,17606,8712,8894,56606,27824,28782,327658,239125,88533,269437,58221,490350,15402,14120,8862,289274,622213,57941,134169,618,553,546,166,1802,132612,173951,23440,56266,115859,209230,325089,40968,101521,148792,153887,87513,86781,16601,41713,44342,57581,101378,20197,99169,40352,146307,158921,39555,816206,100.0,96.0
Goa,South Goa,15.195278658183785,73.941792596877,640537,264085,238342,7843,3915,3928,92669,45124,47545,249590,180411,69179,206616,42974,390947,15952,12640,5846,215152,341664,63623,231961,855,542,563,92,1237,102191,138810,17624,44299,88620,162873,251493,29874,73039,119869,108989,64786,57460,9579,37799,35031,42926,82436,18811,74364,31413,115535,128759,35584,639300,100.0,99.0
Gujarat,Ahmadabad,22.605425564971743,72.23898135593227,7214225,3025463,2410297,759483,399075,360408,89138,47106,42032,2594952,2127547,467405,2332409,262543,4619273,142670,268954,54876,2128452,6042416,883238,50754,14542,4518,209287,2055,7415,965017,1456046,126341,273651,353169,1845383,2198552,761358,1614370,805199,1135058,549188,839295,100831,680535,174812,501082,692591,77256,923594,228737,1159650,1196482,195632,7206810,100.0,90.0
Gujarat,Amreli,21.04832649310872,71.43457637825426,1514190,558180,437279,132915,68518,64397,7322,3856,3466,657139,453642,203497,529153,127986,857051,232126,209935,6083,208995,1410463,99105,919,415,243,2053,40,952,80378,273331,2538,12765,313714,116899,430613,230474,412251,120625,149478,66785,50999,8582,96477,10236,31204,113906,9469,198302,6639,164282,222389,14618,1513238,100.0,96.0
Gujarat,Anand,22.282718206229863,72.57782051557454,2092745,874481,676772,104465,54476,49989,24824,12761,12063,844794,627561,217233,690031,154763,1247951,152412,346329,16460,329593,1798794,250919,29789,1524,267,8591,142,2719,147122,378310,9902,32523,413078,208909,621987,257524,560542,229013,283571,127459,110351,20487,172466,19352,64013,104613,21978,187528,20391,203467,244185,34679,2090026,100.0,92.0
Gujarat,Banas Kantha,24.258538965517253,71.93205252873561,3120506,1048402,656521,327460,169288,158172,284155,144355,139800,1248600,836268,412332,1012080,236520,1871906,475585,350541,11812,410662,2890305,213505,1686,486,281,12659,83,1501,84832,396873,3424,23149,666773,137424,804197,366867,859436,159433,226765,105372,66950,14451,75914,22723,53646,68665,8029,345550,8302,144792,369986,16407,3119005,100.0,94.0
Gujarat,Bharuch,21.75787276237761,72.67326346710801,1551019,623047,495229,62235,31979,30256,488194,250398,237796,627124,468919,158205,526541,100583,923895,78120,253577,8902,286525,1188204,343511,9494,1733,442,4813,342,2480,121542,309091,10257,29531,300677,181319,481996,161675,367060,164765,188539,83895,74380,16036,96508,21579,50018,104126,12246,176875,20255,178535,215142,26021,1548539,100.0,93.0
Gujarat,Bhavnagar,21.70219390341736,72.16272632761141,2880365,1087371,799884,157034,80827,76207,9110,4751,4359,1150632,838781,311851,992140,158492,1729733,231796,334025,17996,566815,2632574,212863,3457,1410,445,26974,127,2515,171327,500757,7297,28925,387251,356826,744077,422461,929286,266953,281250,96241,93391,13946,238912,17517,74663,200864,13792,363545,18127,293361,400446,23109,2877850,100.0,93.0
Gujarat,Gandhinagar,23.193679790026252,72.67221679790026,1391753,582686,447808,108608,56919,51689,18204,9711,8493,534976,408075,126901,451951,83025,856777,104147,129356,8600,292873,1319586,57273,3237,1985,497,6405,82,2688,132683,262539,12107,33662,237624,195634,433258,136131,363156,133594,196456,95730,108400,16088,121735,26385,62348,106981,10124,171699,25749,178594,204833,23010,1389065,100.0,92.0
Gujarat,Jamnagar,22.410600414263328,69.62062005768233,2160119,795140,601394,173895,89597,84298,24187,12415,11772,847440,646822,200618,721253,126187,1312679,264318,147193,11359,424570,1810443,320805,4392,1873,1086,18856,136,2528,142974,386538,11573,30384,347158,299167,646325,255785,491009,194057,199634,74029,87523,18573,157250,20471,67005,185194,12625,291406,20728,270555,331968,27937,2157591,100.0,94.0
Gujarat,Kachchh,23.48057203301311,68.82192301497916,2092371,739239,513080,258859,133224,125635,24228,12825,11403,776228,624704,151524,686937,89291,1316143,105876,183971,10802,475579,1608921,442355,6192,6353,490,25312,98,2650,140067,403294,9631,31961,488293,250982,739275,246956,469402,141345,157284,61366,60386,14062,83904,28788,68552,140540,9226,304000,21858,250397,339331,26105,2089721,100.0,91.0
Gujarat,Kheda,22.88765312500002,73.018803515625,2299885,942480,717763,115631,59734,55897,40336,21057,19279,933983,674586,259397,722134,211849,1365902,239241,359842,12455,322445,2000884,264482,26629,1403,300,3479,82,2626,99982,372226,5710,24502,461479,160547,622026,295057,641541,250044,310341,148530,84223,19498,146364,12788,61231,84414,14099,181434,12080,171342,218734,23201,2297259,100.0,94.0
Gujarat,Mahesana,23.529355452865065,72.45545194085031,2035064,847499,655146,162288,84470,77818,9392,4879,4513,812064,588699,223365,698768,113296,1223000,189760,242969,10282,369053,1885732,136431,1954,1082,146,7087,88,2544,180985,385609,7759,33731,476005,183738,659743,260278,467128,183468,266108,139208,130723,27391,143818,25163,44999,119579,15705,255293,21611,245131,301436,30438,2032520,100.0,93.0
Gujarat,Narmada,21.70666386292833,73.68403208722742,590297,211767,158569,8733,4465,4268,481392,244524,236868,294795,174282,120513,193916,100879,295502,62823,188030,2594,41348,559848,22600,4413,147,80,373,2078,758,12997,101940,576,4081,138121,22248,160369,76197,146661,58188,52687,28396,14748,3451,29316,2442,12913,18771,2354,38303,1182,31194,43827,3170,589539,100.0,96.0
Gujarat,Navsari,20.866973318871995,72.86184869848157,1329672,539471,462438,35464,17959,17505,639659,319740,319919,591834,407881,183953,510004,81830,737838,112809,206608,7173,265244,1225087,78669,5733,2459,601,13386,2823,914,114620,267679,6726,24397,267739,141417,409156,145678,266733,140235,190861,112460,85041,26012,136665,18669,57934,115177,10792,155168,16602,153431,191691,25731,1328758,100.0,96.0
Gujarat,Panch Mahals,22.80435606837605,73.61984598290586,2390776,858054,582751,100446,51278,49168,721604,368348,353256,1097507,673565,423942,685141,412366,1293269,456768,376038,10771,253930,2220974,158513,2863,662,337,5236,131,2060,59096,398937,3456,19753,463363,104238,567601,255905,601358,205420,283648,139773,71810,17958,120545,9656,51901,72703,8391,192790,7024,90896,214889,13708,2388716,100.0,95.0
Gujarat,Patan,23.80634198473284,71.75162977099237,1343734,494631,343282,123408,64190,59218,13303,6835,6468,554830,383074,171756,446240,108590,788904,136590,227080,6392,184768,1194745,142797,916,337,66,3602,66,1205,66310,223424,2231,12870,301483,102655,404138,168990,364667,78731,129584,57494,46355,11111,66270,7802,22405,41235,7733,158057,5271,108006,176829,11039,1342529,100.0,94.0
Gujarat,Porbandar,21.55092351651571,69.71896987722886,585449,221621,172057,51830,26607,25223,13039,6730,6309,231169,174118,57051,195437,35732,354280,65702,48964,2371,114132,549749,33565,500,248,91,515,38,743,41686,117040,1653,5639,96015,87557,183572,50588,150643,71637,63458,25119,22458,5260,40784,4395,17522,45156,4008,81985,3545,80820,92715,6722,584706,100.0,95.0
Gujarat,Rajkot,22.40603377715488,70.83679439383323,3804558,1514075,1210981,290169,149782,140387,24017,12504,11513,1479050,1159480,319570,1324783,154267,2325508,349357,214285,23780,891628,3397406,361388,5478,1918,1170,33591,269,3338,362140,747352,21785,67370,459474,721532,1181006,383780,913928,402240,540278,204306,266295,29924,355586,55289,211531,428744,30503,558748,52563,571843,651936,62685,3801220,100.0,93.0
Gujarat,Sabar Kantha,23.71803594548552,73.13638790459964,2428589,918625,660109,187685,96527,91158,542156,272531,269625,1084878,681435,403443,795096,289782,1343711,366711,333867,10909,373391,2260560,148563,6375,614,168,11110,52,1147,99037,438606,5262,25425,544024,121509,665533,214062,597667,211423,333650,198963,110817,24745,112045,22379,36688,122399,15518,216346,12807,180909,269423,37559,2427442,100.0,95.0
Gujarat,Surat,21.25761372772093,72.93488716344339,6081322,2687468,1883942,158115,82202,75913,856952,432089,424863,2553542,2142819,410723,2405288,148254,3527780,109549,325739,42040,2076214,5260193,660772,21052,5703,12902,112835,3920,3945,815423,1252452,55694,149331,369840,1529998,1899838,566242,1332690,807021,896927,433651,379505,79862,397563,106983,395329,530528,39959,855336,112976,788447,995637,100342,6077377,100.0,79.0
Gujarat,Surendranagar,22.82672007299272,71.48358740875906,1756268,643221,450405,179461,93427,86034,21453,11068,10385,723500,504038,219462,586364,137136,1032768,185235,270861,9518,257886,1620282,109681,1419,512,312,22992,128,942,77857,302068,2975,15309,340788,159810,500598,234873,482679,165406,172947,61164,58389,14501,135074,10088,43874,99436,6932,228637,8028,177591,246026,10457,1755326,100.0,93.0
Gujarat,The Dangs,20.801633877551023,73.6883518367347,228291,77314,63654,992,490,502,216073,107539,108534,118257,61329,56928,88038,30219,110034,64561,40486,1172,12038,203545,3593,20029,69,32,39,560,424,2029,29794,137,1393,52102,7516,59618,43639,59954,17736,14872,7560,3490,2215,6914,991,8955,5662,784,9243,271,9262,11148,1121,227867,100.0,101.0
Gujarat,Vadodara,22.26133739279589,73.49433010291594,4165626,1614087,1278993,221629,114602,107027,1149901,586665,563236,1693473,1233312,460161,1360660,332813,2472153,312126,570361,17680,793306,3713941,384579,23813,9340,2069,27650,1124,3110,411734,798277,53606,117818,547454,692971,1240425,396624,865726,457662,504732,268451,314960,60177,399901,72630,264896,351423,37602,462473,95845,497049,583926,83851,4162516,100.0,93.0
Gujarat,Valsad,20.44238231644259,72.9148584798345,1705678,655528,515129,38237,19557,18680,902794,450976,451818,743245,516188,227057,577327,165918,962433,147569,183025,11833,400818,1571147,94034,19661,1589,913,13809,1417,3108,137209,329218,11020,31285,262410,235981,498391,165459,303197,171712,212318,123281,90912,26987,119338,23938,52199,128491,10408,209929,21685,188248,242422,22085,1702570,100.0,92.0
Haryana,Ambala,30.3503672316384,76.94970310734456,1128350,461288,356737,296246,156874,139372,0,0,0,372139,320120,52019,319475,52664,756211,52871,57293,15753,246222,955096,22143,3705,138202,381,4845,110,3868,121622,199681,12899,32767,175365,139891,315256,89558,170110,161844,163544,97980,91472,18727,133676,26122,32571,92424,15833,124292,23884,172034,170149,30024,1124482,100.0,88.0
Haryana,Bhiwani,28.728868064516128,76.02110225806452,1634445,643158,426713,341162,181475,159687,0,0,0,623006,430678,192328,445675,177331,1011439,288543,103788,14855,215820,1611031,15515,873,2401,254,1016,26,3329,88938,266244,5292,25236,357047,99235,456282,186145,223049,198307,218631,148995,104875,13786,99232,16793,58375,66069,10057,221159,11346,176336,242718,11502,1631116,100.0,89.0
Haryana,Faridabad,28.14873109756098,77.32718536585368,1809733,734940,537799,223799,119495,104304,0,0,0,579229,476933,102296,495316,83913,1230504,27705,29288,32286,489950,1588407,161680,9743,34572,640,4883,249,9559,258422,333171,43437,82673,87700,382981,470681,137902,220384,198551,282666,178846,259933,27864,170927,63470,67341,152884,20485,240316,64331,279652,302937,42136,1800174,100.0,87.0
Haryana,Fatehabad,29.57298318584072,75.54608716814157,942011,327471,230107,284357,149111,135246,0,0,0,369083,263498,105585,286258,82825,572928,132250,97997,6558,132278,779243,8360,996,150969,171,1172,530,570,51693,153301,3210,13142,203020,55360,258380,103541,136663,99948,93526,61476,37741,9504,86268,14030,29817,52633,4347,120937,7830,107042,136196,10912,941441,100.0,90.0
Haryana,Gurgaon,28.043894789579163,77.01935130260523,1514432,638666,472450,197937,104332,93605,0,0,0,544716,432456,112260,487441,57275,969716,56046,27097,18228,443345,1408801,70842,9725,15097,944,7451,254,1318,238359,305751,67087,102343,141703,381988,523691,126920,177453,175370,219200,150120,233402,41366,103261,92934,83772,131478,19984,201135,86768,248024,274931,53812,1513114,100.0,85.0
Haryana,Hisar,29.23628731117825,75.84324682779452,1743931,670200,444111,408785,217338,191447,0,0,0,691621,488321,203300,531227,160394,1052310,261120,144213,16097,270191,1701061,21650,1945,12270,334,3620,33,3018,110495,285004,10132,33400,302013,154113,456126,197303,230074,194595,202792,144626,105346,19031,147721,24642,65713,90721,11379,231246,21142,202588,259276,16651,1740913,100.0,87.0
Haryana,Jhajjar,28.59651868131869,76.61137142857145,958405,399480,276611,170448,90856,79592,0,0,0,326534,250020,76514,246457,80077,631871,112389,44845,9254,160046,945693,8247,734,1042,105,645,22,1917,70149,168558,5034,19241,211816,78328,290144,90737,109829,115794,145258,97457,58826,9387,69952,14298,40791,52868,11057,123227,9674,128007,145032,10748,956488,100.0,86.0
Haryana,Jind,29.45149821958457,76.29598575667653,1334152,502049,330709,282351,150940,131411,0,0,0,523422,368277,155145,385851,137571,810730,230387,102071,9114,181850,1276669,23016,889,29103,172,2594,56,1653,78386,222462,5263,23750,278335,89665,368000,136892,185626,151682,154773,107994,64599,14277,113068,15836,40480,61694,11087,168445,10485,160742,193577,14045,1332499,100.0,87.0
Haryana,Kaithal,29.96068539094649,76.37698930041155,1074304,385782,260747,247513,131486,116027,0,0,0,373899,292696,81203,290663,83236,700405,128016,85651,9450,150782,974520,8232,1769,87558,265,351,70,1539,62668,187349,3724,15301,231091,75696,306787,119345,158239,124682,117753,82297,51043,9111,95704,12792,36696,59238,6044,138662,8124,140195,153352,8646,1072765,100.0,88.0
Haryana,Karnal,29.703200647249204,76.87488025889972,1505324,564516,413497,339604,179681,159923,0,0,0,516062,411646,104416,411533,104529,989262,112288,133723,15311,254740,1341002,31650,2049,126207,532,1516,49,2319,143133,267223,11163,29253,292682,135920,428602,155839,231354,188040,183590,124790,101387,19186,143754,26238,39322,108101,9579,188467,20819,215813,215865,17819,1503005,100.0,89.0
Haryana,Kurukshetra,30.05652659846548,76.78774680306903,964655,370828,276065,215128,113311,101817,0,0,0,336780,268556,68224,285904,50876,627875,68908,85890,6726,175256,805175,15970,1943,140395,214,375,106,477,90150,171908,7356,21951,203553,88268,291821,94530,145392,118107,120790,81964,71007,10999,107683,20261,30979,73765,8235,119559,15839,143316,145855,18061,964178,100.0,89.0
Haryana,Mahendragarh,28.1352161458333,76.14018072916659,922088,380440,249815,156314,82420,73894,0,0,0,338584,232935,105649,212402,126182,583504,149146,38320,7639,143479,913251,5660,301,1737,75,644,15,405,45359,135455,2624,13908,223726,44216,267942,94273,135849,126291,132765,94245,60296,10353,54810,8538,25809,45775,5274,119066,5827,88012,133653,9313,921683,100.0,89.0
Haryana,Panchkula,30.700897142857134,76.97173238095236,561293,229862,175456,101830,53868,47962,0,0,0,211479,164865,46614,182831,28648,349814,26682,12827,9870,162100,490702,23451,2583,40951,1008,1626,90,882,69687,103455,18615,32174,70895,93656,164551,45607,73584,60177,69163,48306,83256,8466,42737,29497,27618,49972,7872,60941,27786,88378,92486,23673,560411,100.0,87.0
Haryana,Panipat,29.34352134146342,76.92895914634147,1205437,464136,322463,206213,109695,96518,0,0,0,412318,328667,83651,339016,73302,793119,72120,62358,15824,262016,1083936,86622,2261,25064,289,4647,99,2519,121846,209965,10024,26719,173502,153804,327306,118873,170565,143466,141473,91756,75774,10977,90548,17466,26625,74923,8489,150926,17705,162321,172677,13262,1202918,100.0,86.0
Haryana,Rewari,28.19164714828897,76.55956007604564,900332,375453,261494,182606,95571,87035,0,0,0,337727,235326,102401,250219,87508,562605,102698,28215,9782,197032,889133,5713,701,1804,202,1525,12,1242,62667,152651,5121,18092,199449,69305,268754,81280,120860,122617,139646,95807,65143,9820,71366,12161,28534,58897,8629,113600,10676,108753,137152,14923,899090,100.0,90.0
Haryana,Rohtak,28.892517647058817,76.53123235294117,1061204,436025,311557,216889,115573,101316,0,0,0,345967,272646,73321,288949,57018,715237,95732,36568,8521,205146,1043887,8185,732,3916,200,3491,24,769,94633,193120,8482,27225,175203,131739,306942,117097,150903,140782,168499,109596,100346,21134,91682,16545,39834,63575,9432,137267,17402,150160,160621,13922,1060435,100.0,87.0
Haryana,Sirsa,29.63583446327684,74.90970480225988,1295189,456968,325929,387381,202430,184951,0,0,0,502003,369462,132541,399169,102834,793186,164297,147042,11952,178712,940255,9524,2186,338962,370,2256,624,1012,70538,215527,6287,22706,245476,93316,338792,141766,201349,153263,134559,83373,61620,16698,117760,24468,45101,75692,7898,165463,13695,150315,190983,17622,1294177,100.0,90.0
Himachal Pradesh,Chamba,32.66741814595661,76.39354063116366,519080,186064,137778,111690,56154,55536,135500,67900,67600,294035,158791,135244,119632,174403,225045,196665,9193,4521,83656,479782,32455,1559,2745,1740,57,14,728,21458,96082,1615,5117,186395,13836,200231,56272,96789,67653,64515,40440,15506,3252,1657,5074,25935,8880,2362,64850,2391,62233,73995,6783,518352,100.0,99.0
Himachal Pradesh,Hamirpur,31.67668481012659,76.49767088607594,454768,180555,177536,109256,53727,55529,3044,1531,1513,241931,118724,123207,126153,115778,212837,147103,8824,3347,82657,449412,3711,243,591,95,293,9,414,34978,104120,2521,7525,196116,15232,211348,37327,71107,72114,91184,64363,35620,5263,7094,6665,23628,16955,16840,53918,3438,86324,90286,19528,454354,100.0,110.0
Himachal Pradesh,Hamirpur,31.67668481012659,76.49767088607594,1104285,408125,245174,241198,130269,110929,474,259,215,443655,308527,135128,290375,153280,660630,130314,181449,19876,112016,1010014,91269,814,196,74,41,273,1604,20175,55929,1196,11037,256081,55300,311381,159593,238344,211029,103334,59914,59612,4094,99240,3791,54513,24522,4934,130019,1757,48564,137792,2839,1102681,100.0,86.0
Uttar Pradesh,Hamirpur,25.738158381502892,79.82619479768789,454768,180555,177536,109256,53727,55529,3044,1531,1513,241931,118724,123207,126153,115778,212837,147103,8824,3347,82657,449412,3711,243,591,95,293,9,414,34978,104120,2521,7525,196116,15232,211348,37327,71107,72114,91184,64363,35620,5263,7094,6665,23628,16955,16840,53918,3438,86324,90286,19528,454354,100.0,110.0
Uttar Pradesh,Hamirpur,25.738158381502892,79.82619479768789,1104285,408125,245174,241198,130269,110929,474,259,215,443655,308527,135128,290375,153280,660630,130314,181449,19876,112016,1010014,91269,814,196,74,41,273,1604,20175,55929,1196,11037,256081,55300,311381,159593,238344,211029,103334,59914,59612,4094,99240,3791,54513,24522,4934,130019,1757,48564,137792,2839,1102681,100.0,86.0
Himachal Pradesh,Kangra,32.14093603238864,76.41205910931173,1510075,606443,546197,319385,159697,159688,84564,41745,42819,675170,403756,271414,313915,361255,834905,303007,54849,15662,301652,1461140,19797,3023,8929,14511,194,208,2273,148361,330081,8053,22753,588321,39007,627328,127699,243617,223099,284124,192936,91236,13577,38456,22727,74758,69192,27803,203232,12858,272579,274180,43145,1507802,100.0,101.0
Himachal Pradesh,Kinnaur,31.60667184065933,78.51613736263741,84121,36697,24002,14750,7433,7317,48746,23609,25137,56273,33863,22410,46782,9491,27848,32995,2537,944,19797,64732,448,485,249,18086,29,45,47,10740,17865,354,2563,44514,0,44514,9400,13749,11437,11140,7871,5118,713,190,2775,6453,857,923,12885,611,12925,16468,2660,84074,100.0,82.0
Himachal Pradesh,Kullu,31.90911922077925,77.40922649350647,437903,174550,133122,122659,62686,59973,16822,8493,8329,269084,148829,120255,193876,75208,168819,197141,12372,2707,56864,415669,2974,1568,1396,15377,94,83,742,40064,91322,2623,7010,167995,20709,188704,48384,77363,61854,58122,39081,23168,2377,2450,8479,21750,6979,2271,68134,3454,66910,79454,9049,437161,100.0,94.0
Himachal Pradesh,Mandi,31.635805940594054,76.96556930693067,999777,393669,330078,293739,147250,146489,12787,6345,6442,572671,297464,275207,284154,288517,427106,387944,15822,7134,161771,981412,9460,876,4081,2628,43,86,1191,59324,214491,5333,16401,431129,31696,462825,100052,159043,132147,180188,128549,54139,9350,10927,15958,53382,26366,21431,119439,8055,157314,172205,31335,998586,100.0,101.0
Himachal Pradesh,Shimla,31.155725451807253,77.62573042168668,814010,342846,269796,215777,110828,104949,8755,4554,4201,430926,258628,172298,311770,119156,383084,249786,26114,7967,147059,791449,11810,2025,4047,3262,185,197,1035,108888,172754,9177,24127,279269,95896,375165,69967,113536,113305,141490,95341,80414,9748,2813,23107,70807,8186,6859,125896,10363,131450,161675,28920,812975,100.0,92.0
Himachal Pradesh,Sirmaur,30.682764453961443,77.43184689507493,529855,205617,157028,160745,83017,77728,11262,5912,5350,280083,169399,110684,193906,86177,249772,182958,10730,5313,81082,476830,33215,577,15501,2645,236,86,765,28904,91509,2220,8593,171102,21054,192156,57853,100123,78103,67080,38282,23352,4048,16691,7459,26363,17523,5229,62390,3852,58902,75406,7787,529090,100.0,92.0
Himachal Pradesh,Solan,31.03864311926604,76.94442140672783,580320,244372,184206,164536,85482,79054,25645,13351,12294,298737,190001,108736,219235,79502,281583,141267,10283,4969,142218,548579,14678,1452,13926,574,591,110,410,53722,119866,5250,14478,192787,51509,244296,50331,89407,83992,95232,59363,36803,8280,12426,15117,38632,25275,10150,76524,7887,94692,108699,22025,579910,100.0,88.0
Himachal Pradesh,Una,31.58330388349513,76.18353932038836,521173,213281,186434,115491,58601,56890,8601,4445,4156,215346,141612,73734,134482,80864,305827,84800,19604,3427,107515,480138,14275,390,26009,56,70,10,225,43809,105929,2412,8238,185091,20126,205217,51838,87913,81256,105204,60626,32120,5511,41378,8059,19820,36913,7736,70217,5342,88894,90729,12776,520948,100.0,98.0
Jammu and Kashmir,Doda,33.359614675767915,76.07163720136518,409936,138620,80463,53408,27209,26199,39216,20377,18839,151912,101144,50768,79377,72535,258024,69947,12199,1932,67834,187621,220614,472,422,21,22,42,722,7963,61831,596,3077,122267,11350,133617,43794,47350,62719,48359,31416,12647,1846,563,1804,24106,1550,1265,44395,497,19244,47031,1371,409214,100.0,92.0
Jammu and Kashmir,Jammu,32.713199095022645,74.8477520361991,1529958,641916,495219,377991,197610,180381,69193,36323,32870,508622,417456,91166,410344,98278,1021336,68613,36873,10589,392547,1289240,107489,12104,114272,470,1987,321,4075,197168,294739,19905,46657,254566,248043,502609,135391,185962,253542,261852,159257,146501,30616,68272,44063,76236,113156,20542,179925,32191,240478,241206,40739,1525883,100.0,88.0
Jammu and Kashmir,Kargil,33.565994894894914,76.63675315315312,140802,56301,29935,18,12,6,122336,62652,59684,51873,39839,12034,28941,22932,88929,8266,3763,1222,38622,10341,108239,604,1171,20126,28,4,289,3285,15824,235,1005,40370,7774,48144,12732,19083,20874,16938,9826,3077,408,488,1847,10895,652,899,7733,249,8008,10562,1930,140513,100.0,81.0
Jammu and Kashmir,Kathua,32.51781678321678,75.58901398601404,616435,228499,160705,141224,74644,66580,53307,27693,25614,200431,161548,38883,142847,57584,416004,69533,21566,3952,105380,540063,64234,1828,9551,24,16,2,717,32772,109422,1443,6112,181374,33473,214847,69396,82715,106411,91522,47694,24330,4504,17726,4687,26172,23014,3065,78220,2732,66944,88964,7679,615718,100.0,89.0
Jammu and Kashmir,Pulwama,33.88414418604652,75.00921860465118,560440,178326,115632,402,397,5,22607,11837,10770,188420,138428,49992,98306,90114,372020,49746,34080,10615,93979,13840,535159,1109,9440,35,6,18,833,16828,73629,1537,5293,147520,21703,169223,36201,54808,73991,67368,40931,31286,5897,5479,6164,51973,4551,1770,57529,1478,45967,65162,5863,559607,100.0,91.0
Jammu and Kashmir,Punch,33.791241290322574,74.29593161290322,476835,163333,98391,556,406,150,176101,90274,85827,161393,117677,43716,73247,88146,315442,54264,31583,3930,71616,32604,431279,958,11188,83,10,2,711,13160,62900,346,3342,132139,15269,147408,55762,72024,69219,46062,29517,13962,1884,846,1731,37412,2407,1908,31773,276,16022,36358,2677,476124,100.0,89.0
Jammu and Kashmir,Srinagar,34.27312898550724,75.11021159420288,1236829,431746,316838,1068,995,73,8935,5021,3914,407188,333151,74037,330547,76641,829641,12228,10408,20095,364457,42540,1177342,2746,12187,285,74,2,1653,138119,165403,16413,33831,4518,257721,262239,88911,173309,178723,176409,132727,121856,32114,44501,34586,129337,39804,12717,120553,22024,152945,157875,24605,1235176,100.0,90.0
Jammu and Kashmir,Udhampur,33.04770670731707,75.15286951219511,554985,197543,124811,138569,72093,66476,56309,29142,27167,243672,163845,79827,152442,91230,311313,113020,11396,2641,116615,489044,59771,1962,3418,106,57,235,392,20008,73999,1214,5744,148664,34696,183360,58567,80129,86008,55024,29657,17345,4030,3948,3800,30146,8953,1459,56859,2075,37323,64858,6540,554593,100.0,87.0
Jharkhand,Bokaro,23.6814965034965,85.98398374125864,2062330,759088,514432,299227,154297,144930,255626,129233,126393,685368,507677,177691,380304,305064,1376962,137521,126406,21671,399770,1636460,241451,13730,4174,1890,2045,160524,2056,67157,274726,9754,37997,250312,258452,508764,242467,338861,342646,232434,154076,116396,21157,247231,21098,53133,108998,10961,215478,22508,179570,239204,12765,2060274,100.0,92.0
Jharkhand,Chatra,24.11619945750453,84.93295804701627,1042886,303902,206159,340553,172668,167885,45563,23141,22422,397690,251213,146477,195502,202188,645196,119297,188513,14210,75670,903179,116710,6565,888,35,129,12936,2444,5307,27037,590,9115,200974,14528,215502,200861,161729,102033,63670,35342,21697,2046,90400,2110,43535,15107,2320,78668,852,17627,82823,1835,1040442,0.0,95.0
Jharkhand,Deoghar,24.33070100755672,86.75697632241814,1492073,489837,303701,190036,98295,91741,180962,91012,89950,551467,383691,167776,297146,254321,940606,128656,209693,39361,173757,1165140,302626,6027,143,188,282,16067,1600,26760,130193,1944,13550,257373,64337,321710,217460,266292,190171,96331,54419,43979,6699,174959,3714,32959,32553,3976,119254,3384,64890,126305,3075,1490473,100.0,93.0
Jharkhand,Dhanbad,23.854509090909097,86.40372924901185,2684487,1014950,707254,437309,226362,210947,233119,117256,115863,844504,658851,185653,546714,297790,1839983,97118,103488,25889,618009,2149480,431762,11243,9727,331,1268,77182,3494,83995,427173,11568,46646,258764,405455,664219,317918,501453,449506,305054,186697,107382,14615,283681,18631,47744,131398,13811,303871,23334,290580,328776,11094,2680993,100.0,91.0
Jharkhand,Dumka,24.275006125574265,87.27662450229711,1321442,406275,266134,79614,40802,38812,571077,282125,288952,624779,367108,257671,237479,387300,696663,193402,303084,23106,105187,1044726,106865,86404,234,267,162,78622,4162,11836,62110,1193,10396,303697,23281,326978,229157,229259,149009,69525,38383,25593,2697,175375,2912,36546,23058,3086,70067,1785,32443,75323,2170,1317280,100.0,98.0
Jharkhand,Garhwa,24.082114689265527,83.68664265536722,1322784,405161,248315,319946,165313,154633,205874,104499,101375,571431,335451,235980,175126,396305,751353,113561,328673,14487,114710,1104475,194680,17168,123,371,20,4591,1356,6798,29373,565,8881,272872,19180,292052,207665,195565,147446,87844,46882,28144,2830,108161,2671,47454,16578,2218,96766,934,21864,100748,1764,1321428,0.0,94.0
Jharkhand,Giridih,24.30578509874329,86.08710915619386,2445474,783736,469739,325493,166447,159046,238188,120646,117542,1036277,623946,412331,412912,623365,1409197,369913,362610,32544,271210,1856202,508586,14645,937,650,1503,59218,3733,16909,125431,1944,19976,452564,46886,499450,503261,443980,261309,146464,77540,55122,8449,226550,6290,77769,57582,6569,231728,3341,63911,242670,4373,2441741,100.0,94.0
Jharkhand,Godda,24.8189,87.2941735483871,1313551,376212,228307,115567,59835,55732,279208,138510,140698,552191,344019,208172,235735,316456,761360,144603,307767,18719,81102,937126,289182,37795,97,128,115,47067,2041,7421,43230,874,11925,276454,15576,292030,217607,190777,126766,79430,47395,30870,4002,133332,1754,48401,19859,2481,84687,1458,25764,89533,2365,1311510,0.0,94.0
Jharkhand,Gumla,23.078532948929148,84.55056787479396,1025213,321795,237925,32459,16446,16013,706754,352514,354240,487508,264774,222734,278931,208577,537705,321272,97918,12771,55547,309563,51429,202449,221,531,23,457468,3529,9108,31687,831,7807,216629,16445,233074,136719,242580,182260,82114,45613,23742,2913,130700,2181,36472,16146,2529,51241,1114,18701,55186,1416,1021684,100.0,99.0
Jharkhand,Jamtara,23.97873318077801,86.95325080091534,791042,258260,168052,72885,37212,35673,240489,120035,120454,326631,214740,111891,122434,204197,464411,106008,135667,11547,73409,550560,164406,4419,520,118,783,68564,1672,5564,49419,808,4959,165555,20113,185668,131150,132014,85745,40613,22995,14802,1578,116861,1632,21154,16906,2377,52099,1057,31194,55601,1125,789370,100.0,95.0
Jharkhand,Latehar,23.72511185840708,84.48298743362837,726978,209706,140976,154910,78266,76644,331096,166427,164669,313379,180106,133273,117311,196068,413599,103693,142729,9205,57752,473049,69808,47653,120,128,16,133525,2679,2177,38194,340,6240,146377,14137,160514,109491,121529,88787,46142,23885,13956,1017,63127,1268,28620,8012,1000,37343,440,10697,39512,1169,724299,0.0,97.0
Jharkhand,Lohardaga,23.488796043165483,84.6605169064748,461790,149568,110139,15330,7862,7468,262734,130814,131920,221332,121605,99727,103001,118331,240458,99780,80840,4449,36263,112378,95012,16770,51,33,15,235987,1544,8016,28769,351,2954,96759,14725,111484,82873,84920,63545,38503,21987,13847,976,66235,1102,18498,10065,946,31101,677,12504,32713,666,460246,100.0,99.0
Jharkhand,Pakur,24.57260428082189,87.69691969178076,900422,206989,145892,28469,14352,14117,379054,186967,192087,404584,234012,170572,252017,152567,495838,105334,150028,19471,129751,410127,322963,75865,356,283,222,88760,1846,5316,31414,328,4535,200588,16587,217175,100367,133770,79045,29934,15700,9822,1525,102037,923,24266,9725,1156,37087,605,16500,39592,1349,898576,0.0,99.0
Jharkhand,Palamu,24.196925968109337,84.20310842824594,1939869,621706,402857,536382,277119,259263,181208,92577,88631,713175,473042,240133,283702,429473,1226694,133585,380976,19911,178703,1683169,238295,6164,734,188,284,5681,5354,17270,68238,2155,19981,355529,52375,407904,303053,296937,231565,160964,100290,63595,7117,159105,8015,75238,29434,7230,155997,2931,51012,167482,4255,1934515,100.0,93.0
Jharkhand,Ranchi,23.184235061391547,85.31781937244203,2914253,1085244,826189,152943,78613,74330,1042016,520582,521434,1142867,743967,398900,756176,386691,1771386,317487,267360,38452,519568,1612239,410759,193974,4826,932,2733,677445,11345,164237,350908,22538,76565,420740,310242,730982,361522,547583,495515,370847,247237,195181,28424,344888,34053,137964,141089,19068,293292,43660,247137,334055,21695,2902908,100.0,95.0
Jharkhand,Sahibganj,24.93667989690721,87.68264097938142,1150567,287303,195960,72341,37317,35024,308343,153435,154908,490202,295690,194512,322572,167630,660365,109975,206902,43179,130146,628044,398243,83208,198,245,125,38426,2078,11545,34879,591,9563,223450,37543,260993,146399,171416,110822,52248,28087,19832,2593,95511,1285,45998,10359,1611,60592,808,24604,64808,2605,1148489,0.0,95.0
Jharkhand,Simdega,22.608760391198054,84.59193691931536,599578,191991,151492,44674,22150,22524,424407,211546,212861,288645,159867,128778,155510,133135,310933,158019,90232,8011,32383,201524,15103,306601,51,753,114,73930,1502,3472,16865,423,4649,144169,11114,155283,82317,130068,97580,47836,24842,13674,1197,86022,1158,17801,9742,1190,25218,476,7606,27504,1096,598076,100.0,100.0
Karnataka,Bagalkot,16.15860676328503,75.64526070853468,1889752,641388,472024,319149,158135,161014,97203,48470,48733,818081,511575,306506,676407,141674,1071671,196199,303243,44797,273842,1634229,219991,3433,443,412,25198,166,5880,49345,301389,3745,26297,324799,165858,490657,242336,385986,147397,171505,115095,82319,25791,153879,9726,37022,69279,14552,205045,7247,161280,234284,14687,1883872,100.0,99.0
Karnataka,Bangalore Rural,12.936827087794448,77.47369314775169,990923,385311,303438,213700,107424,106276,52903,27147,25756,459891,315499,144392,389989,69902,531032,127770,84108,19457,228556,890429,92252,5368,389,272,1045,85,1083,77454,214253,3729,17066,231052,95410,326462,100770,168165,126285,166677,82235,51015,10741,93908,10389,62715,69005,10920,146993,7181,156967,165588,7675,989840,100.0,95.0
Karnataka,Belgaum,16.16107219152853,74.72329042357275,4779661,1725548,1326484,577418,289096,288322,297198,148673,148525,2105668,1372422,733246,1734501,371167,2673993,711980,649517,60342,683829,4038331,528412,18418,2037,1086,178310,149,12918,240742,808827,17560,73497,962777,356198,1318975,544564,1057297,609600,532584,279583,201884,56621,519937,35104,152541,228887,48042,543121,31642,468274,641485,50322,4766743,100.0,97.0
Karnataka,Bellary,15.074377548209377,76.47228471074374,2452595,813440,608181,517409,258582,258827,451406,225451,225955,1116880,703258,413622,969388,147492,1335715,258080,406092,22832,429876,2103633,320834,14014,1029,284,8044,54,4703,114040,440374,9626,40190,371604,251876,623480,275785,529576,219702,203139,121453,89475,29367,164714,14163,40985,111250,20960,288487,17678,291101,327050,17603,2447892,100.0,98.0
Karnataka,Bidar,17.950361730769224,77.19459961538459,1703300,597198,445475,399785,204280,195505,235822,119787,116035,702608,459050,243558,551763,150845,1000692,141302,280091,18095,263120,1289709,335184,35438,1145,30453,680,521,10170,34924,271439,3971,36072,287134,102269,389403,188998,474921,194233,181076,105347,54900,12885,102869,9724,21485,44813,28962,141567,6751,116314,187983,17454,1693130,100.0,96.0
Karnataka,Bijapur,16.84015316666667,75.95909166666665,255230,54076,32843,10122,5145,4977,204189,101519,102670,134525,71591,62934,69338,65187,120705,66504,49859,1399,16763,245151,1617,2709,68,1649,15,3793,228,1022,12516,117,1462,50449,7942,58391,25597,22787,14170,7192,6755,3421,147,16830,305,6766,2625,513,4019,156,4215,5033,501,255002,0.0,98.0
Karnataka,Bijapur,16.84015316666667,75.95909166666665,2177331,730566,517702,442773,226440,216333,39314,19912,19402,927722,580111,347611,760083,167639,1249609,262217,351600,25379,288526,1786830,369588,2433,558,374,8665,499,8384,58890,326594,4987,36571,396449,131041,527490,246391,430477,143199,182756,129109,96990,24569,161995,11722,55653,67663,21320,247885,9673,164015,284523,15318,2168947,100.0,96.0
Karnataka,Chikmagalur,13.425288289676422,75.67626502311249,1137961,438257,380088,253651,125016,128635,44970,21990,22980,565774,357889,207885,480229,85545,572187,155392,126600,8873,274909,1004553,101235,26000,182,109,4710,4,1168,74534,238505,4510,18727,311660,80766,392426,114570,257550,160083,177585,96470,72420,12631,76379,15446,51203,59192,38308,123117,6865,169969,196527,35102,1136793,100.0,101.0
Karnataka,Chitradurga,14.29102220394736,76.57821957236843,1659456,607188,480204,389117,196819,192298,302554,152939,149615,856587,513311,343276,667479,189108,802869,286245,294337,26235,249770,1520553,128751,3175,322,84,3778,128,2665,60522,307257,5711,28897,349704,97644,447348,188329,332648,196470,217567,132435,75262,22078,102607,7425,50130,55959,18143,168893,6484,174344,206637,19601,1656791,100.0,97.0
Karnataka,Davanagere,14.330414586709884,75.91723841166937,1945497,720637,587903,392595,198299,194296,233112,117808,115304,875207,585639,289568,705099,170108,1070290,230846,295873,31438,317050,1658465,265805,5420,307,164,6417,1743,7176,100812,372671,7320,39416,354680,176011,530691,242130,446793,206686,269748,154781,123863,32375,146389,15449,44415,90291,23773,239519,15464,256051,284572,21280,1938321,100.0,97.0
Karnataka,Dharwad,15.343831376975173,75.13831264108359,1847023,711776,589888,177855,89137,88718,87548,44173,43375,784833,543776,241057,690948,93885,1062190,164279,207642,16463,396449,1390020,386834,28747,1486,715,29037,2748,7436,140584,347962,15013,49585,199707,283397,483104,252596,383041,185530,227113,143453,137768,34302,111313,21127,77142,91208,24241,211479,27168,233604,266330,30610,1839587,100.0,97.0
Karnataka,Gadag,15.507128256880746,75.64861302752298,1064570,397178,302999,174196,87745,86451,61654,30975,30679,495722,310412,185310,423451,72271,568848,127441,200310,15485,152486,907750,143665,3432,231,79,5993,74,3346,31959,198064,3373,15625,180066,111906,291972,121615,244640,112703,105150,63816,42053,12822,73191,5205,29345,30957,10794,108418,4457,104708,128416,9204,1061224,100.0,98.0
Karnataka,Gulbarga,17.070459515951594,76.87503850385033,2566326,828359,599009,648782,330091,318691,65259,32830,32429,1087028,680001,407027,844237,242791,1479298,220198,415267,25891,425672,2011014,513125,8344,826,9589,4865,330,18233,77334,404767,9752,52483,400704,199303,600007,177860,579057,270622,290570,153746,104256,20492,118463,12872,59889,73797,29585,261706,16365,222126,307848,16557,2548093,100.0,97.0
Karnataka,Hassan,12.945098749999998,76.11049549999997,1776421,668836,556420,345031,169961,175070,32329,15986,16343,903580,560452,343128,752387,151193,872841,437034,165910,16126,284510,1630814,120011,15611,289,623,5820,3,3250,90599,400702,4851,23444,496103,132878,628981,182255,354480,232531,292369,147837,103152,27774,138247,14979,94906,97603,40596,239448,9263,272295,307439,27395,1773171,100.0,101.0
Karnataka,Haveri,14.737582809224318,75.3961230607966,1597668,603793,481650,219976,112212,107764,141380,72109,69271,730066,490731,239335,601951,128115,867602,203055,311263,20217,195531,1281878,297927,2406,419,68,9834,702,4434,41517,295937,2456,17819,315076,98488,413564,240925,430529,201965,158442,84357,55310,16830,117943,5681,35550,47577,12071,173044,4509,155076,194815,9700,1593234,100.0,95.0
Karnataka,Kodagu,12.39684468085106,75.79336595744688,554519,215302,197575,73584,35759,37825,58054,28510,29544,278938,172100,106838,258753,20185,275581,21174,15153,1549,241062,448986,87274,17130,139,126,250,220,394,40958,113931,3308,10758,181182,31792,212974,51287,111562,75291,86232,54939,43225,8251,20075,16963,65260,22161,21188,58144,4548,83016,104109,24777,554125,100.0,102.0
Karnataka,Kolar,13.312799881235172,78.01376947743476,1536401,564110,452109,465867,232546,233321,78875,39997,38878,717872,454048,263824,584590,133282,818529,183057,201233,24178,309404,1305431,199873,26722,253,150,2494,92,1386,72407,309494,5051,27235,326567,151042,477609,138015,289841,228422,225498,107929,71422,17961,127046,9208,55405,85198,23838,177116,10291,209698,223139,22185,1535015,100.0,98.0
Karnataka,Koppal,15.651253271028034,76.1617048598131,1389920,468785,340300,258608,129341,129267,164271,82761,81510,654766,387974,266792,508089,146677,735154,163413,273016,18794,199543,1218024,161770,4081,296,85,2898,461,2305,31673,223166,2135,15263,272968,64681,337649,222140,357098,127605,113028,72243,43967,10431,97577,6211,27892,45100,8929,148202,4246,113995,166636,9505,1387615,100.0,99.0
Karnataka,Mandya,12.574901806239744,76.81570098522172,1805769,638668,510981,265294,131675,133619,22402,11310,11092,871408,575203,296205,714901,156507,934361,388981,216159,17834,248434,1712695,77801,8506,322,299,3607,109,2430,80452,391033,3367,20265,458867,103435,562302,145178,309476,226552,308624,157839,102838,19987,192330,8188,103964,96273,28508,221352,6547,236020,265094,15234,1803339,100.0,100.0
Karnataka,Mysore,12.248100259403367,76.52881802853437,3001127,1063766,898414,536643,269331,267312,334547,166697,167850,1314268,921803,392465,1082108,232160,1686859,349337,311002,28162,625767,2631985,290549,39361,1255,16194,14419,493,6871,273706,640868,28397,80086,540596,380386,920982,207091,537686,404565,452412,222230,212541,26834,252546,40420,183684,211066,37642,396142,49016,441131,472605,38821,2994256,100.0,99.0
Karnataka,Raichur,16.050795353982295,76.87368606194688,1928812,577213,402556,400933,200359,200574,367071,182101,184970,903413,530373,373040,725985,177428,1025399,245299,383526,19095,255493,1634062,272022,10394,538,2265,4156,29,5346,51443,314547,5200,33903,330446,125402,455848,147743,385673,163709,153346,82082,50463,14622,120959,11104,43144,70603,18739,211894,8915,162411,242634,12001,1923466,100.0,100.0
Karnataka,Shimoga,14.063845885634592,75.17882078103197,1752753,674938,588078,308158,153546,154612,65412,32707,32705,780598,534487,246111,652789,127809,972155,204493,246464,15087,314554,1479424,234664,26521,400,120,9234,367,2023,128087,363835,8791,35207,352444,201662,554106,191641,385978,292481,251095,132138,111753,18036,165796,20781,65755,111532,30873,234606,16632,259899,299155,33676,1750730,100.0,100.0
Karnataka,Tumkur,13.592467760074973,77.02297966260545,2678980,1006024,807367,506901,254535,252366,209559,105265,104294,1354646,837512,517134,1078431,276215,1324334,505910,352286,54523,441927,2413812,245923,9130,477,187,5067,161,4223,116539,562769,7971,41751,685443,204799,890242,270373,500593,386998,423738,213588,143735,30687,276586,14929,132572,137806,53802,285439,16675,321848,372910,33669,2674757,100.0,98.0
Karnataka,Udupi,13.450404228534568,74.72009990316337,1177361,465704,460725,75429,36988,38441,52897,26228,26669,513241,335399,177842,459446,53795,664120,63143,63390,10580,376128,1009179,96740,65838,232,161,4534,155,522,83810,224814,9070,24817,269817,115572,385389,142493,286193,176260,178094,109663,107279,18444,79637,21349,78521,65169,23229,145571,13822,173033,220948,52148,1176839,100.0,109.0
Kerala,Alappuzha,9.542602965599087,76.38010796263319,2127789,890552,962245,201211,97183,104028,6574,3175,3399,804471,536738,267733,596387,208084,1323318,25237,71706,35865,671663,1460447,224545,435056,268,146,74,311,6942,274392,507913,28842,71593,331419,392117,723536,133039,334339,418953,573306,274789,198858,58096,229196,42404,127759,144891,77782,237117,41112,425707,466736,151837,2120847,100.0,110.0
Kerala,Ernakulam,10.004879301987431,76.26957729035381,3282388,1425723,1429953,268411,131573,136838,16559,8349,8210,1249343,913249,336094,1061388,187955,2033045,50423,71391,23976,1103553,1509557,514397,1248137,860,614,1176,1083,6564,499291,771287,88737,184167,369694,804997,1174691,212263,446380,554817,702511,389793,429880,113133,250078,135307,269428,322394,68129,386537,132533,696129,741106,286440,3275824,100.0,103.0
Kerala,Idukki,9.80480963855423,77.04586641566264,1108974,471881,451129,145486,72399,73087,55815,27995,27820,516363,331710,184653,415947,100416,592611,100917,145698,6888,262860,541854,82206,481507,100,189,44,384,2690,54626,244844,8250,24863,391610,20823,412433,79149,166604,209398,261237,136428,86136,19252,19378,21976,67489,35855,20807,154910,11163,207519,247060,71343,1106284,100.0,101.0
Kerala,Kannur,11.941523076923056,75.35209891725934,2523003,1012956,1125478,83350,40260,43090,41371,20141,21230,824116,609377,214739,694209,129907,1698887,36549,82988,12875,691704,1509592,742483,262526,424,1118,193,722,5945,115356,511167,32653,83940,306288,566191,872479,204713,487016,491844,540383,308670,217203,40277,66300,44108,239332,76530,62097,247886,34105,423337,503214,193231,2517058,100.0,114.0
Kerala,Kasaragod,12.33310309912974,75.07768497134369,1307375,516476,521016,53283,26385,26898,48857,23950,24907,462998,325095,137903,372700,90298,844377,23732,38774,24496,375996,729987,486913,87454,151,362,130,152,2226,74092,237670,10378,32484,251641,166164,417805,115476,268084,230416,238900,122657,76192,16585,27736,19438,75335,34267,32813,110808,12210,179664,239445,95824,1305149,100.0,108.0
Kerala,Kollam,8.929388820570157,76.6360775852431,2635375,1074345,1165928,328263,157801,170462,10761,5195,5566,912025,644362,267663,695299,216726,1723350,56693,92193,21511,741628,1697635,508500,421598,208,272,63,619,6480,263148,630767,31542,83133,523715,401415,925130,172247,406592,562529,595191,307950,233402,64052,157906,58867,124857,144080,98910,278359,42989,525754,569631,192362,2628895,100.0,111.0
Kerala,Kottayam,9.643701174068417,76.46059673302705,1974551,861592,888206,153909,75503,78406,21972,10974,10998,735735,530322,205413,604553,131182,1238816,49991,63052,18523,604169,983598,126499,858608,204,358,83,565,4636,187213,464039,37849,83999,481967,196194,678161,117681,271496,373998,475724,280720,221350,52339,76041,73096,117604,122177,57483,191404,50903,406922,451226,202339,1969915,100.0,104.0
Kerala,Kozhikode,11.392924270557026,75.71158720159153,3086293,1266939,1348504,199191,97279,101912,15228,7429,7799,948981,752333,196648,754187,194794,2137312,26543,64198,13312,844928,1734958,1211131,131516,297,235,601,588,6967,145558,641660,36791,107602,323793,666543,990336,247996,564392,647221,630818,351267,250117,53166,94227,54277,228436,149330,99037,294411,51258,490719,632201,238753,3079326,100.0,110.0
Kerala,Malappuram,10.97329875666072,75.93910775606876,4112920,1597404,1713911,308266,151557,156709,22990,11272,11718,1062424,898157,164267,852047,210377,3050496,57567,117405,18423,869029,1135259,2888849,81556,205,179,68,579,6225,139994,730119,27909,119918,634543,522586,1157129,415601,770417,814285,933793,392867,203779,41344,96908,59145,207137,138096,77464,424435,43503,485406,720497,218598,4106695,100.0,110.0
Kerala,Palakkad,10.784926903553291,76.49980490693744,2809934,1122600,1116892,403833,197451,206382,48972,24314,24658,1042340,746121,296219,875540,166800,1767594,67805,249949,25035,699551,1875980,812936,114397,220,238,78,400,5685,178386,587583,27162,69440,665899,228442,894341,249198,492864,608176,572412,232109,180540,36370,101999,43458,165350,145549,44746,352106,36289,447169,533223,136371,2804249,100.0,107.0
Kerala,Thiruvananthapuram,8.537101759082221,76.88711502868073,3301427,1354857,1430551,372977,178589,194388,26759,12624,14135,1231669,864101,367568,921282,310387,2069758,38837,94470,28587,1069775,2194057,452915,630573,404,301,76,1082,22019,343590,783872,71621,155321,559293,609824,1169117,206328,460690,642470,682156,389161,381782,76129,136964,96456,264663,220675,92401,400748,94612,658734,697741,204592,3279408,100.0,109.0
Kerala,Thrissur,10.458932647907687,76.12321940836945,3121200,1282261,1396287,324350,156480,167870,9430,4362,5068,1095727,789511,306216,929506,166221,2025473,41786,73941,27883,952117,1823442,532839,757484,259,278,62,585,6251,338350,721625,56148,132774,336748,715119,1051867,222627,445696,524387,821831,362657,338600,71535,248933,84016,262620,220583,99998,318301,79552,616644,671105,252806,3114949,100.0,111.0
Kerala,Wayanad,11.715277464788736,76.07587007042254,817420,328136,317449,32578,16406,16172,151443,74476,76967,340077,228639,111438,263445,76632,477343,52759,101630,4574,181114,404460,234185,174453,61,312,1797,286,1866,23028,149864,4712,15944,266183,11805,277988,65326,144896,137227,184266,87042,51111,8786,15359,13027,48187,22721,16555,91600,6438,109972,155220,47065,815554,100.0,103.0
Madhya Pradesh,Anuppur,23.18184220430107,81.86560000000007,749237,254120,182475,74385,37841,36544,358543,177977,180566,346471,207401,139070,227040,119431,402766,115448,130376,7051,93596,686524,21473,2132,606,86,1653,35434,1329,23388,81338,1290,7266,147388,60325,207713,113208,115716,93450,58536,42743,31646,3066,84977,2895,27223,29063,2908,51002,3062,41067,57032,3122,747908,100.0,98.0
Madhya Pradesh,Ashoknagar,24.63098846153845,77.82974493927134,845071,290304,178805,175764,92216,83548,82072,42447,39625,315270,231829,83441,241288,73982,529801,116913,122387,10559,65411,778214,40707,635,8009,1352,15094,27,1033,15886,84720,619,6016,169606,37135,206741,148647,117053,62802,51499,29551,22791,3466,43637,2373,20551,23638,2816,75605,1332,42898,81251,2830,844038,100.0,90.0
Madhya Pradesh,Balaghat,21.80020720640569,80.42170053380796,1701698,626468,521155,125426,61576,63850,383026,186979,196047,893014,488610,404404,530506,362508,808684,257785,459796,19245,156188,1519384,38542,5295,1050,72162,4778,58064,2423,27283,277927,1712,13306,400074,70793,470867,290699,312640,235251,168635,126308,74213,7414,252422,4045,53640,46168,7640,85942,4072,82475,100910,7328,1699275,100.0,102.0
Madhya Pradesh,Barwani,21.702135714285724,74.91004719710673,1385881,313642,236284,87991,44478,43513,962145,482182,479963,653897,365928,287969,525791,128106,731984,287704,267196,7451,91546,1318869,58222,2967,2361,416,2289,263,494,30115,181139,1158,8516,250358,48912,299270,157337,137116,74067,59100,42649,30754,2581,51163,3102,18097,31152,3163,63051,2713,48847,70169,3955,1385387,0.0,98.0
Madhya Pradesh,Betul,21.964626315789477,77.7873428189117,1575362,529783,409986,159296,81621,77675,667018,333166,333852,786980,453887,333093,511287,275693,788382,253602,358157,11849,163372,1505745,37590,3271,1078,9651,3759,13048,1220,45270,230974,2109,13755,318945,87704,406649,239114,232532,176325,140402,105696,82761,5876,114524,5740,40590,59230,11017,98857,5615,94586,121106,11232,1574142,100.0,97.0
Madhya Pradesh,Bhind,26.35951126187245,78.7618324287653,1703005,676513,418404,374799,204212,170587,6131,3283,2848,520768,455775,64993,422111,98657,1182237,231185,158266,9838,121479,1595400,66776,973,4047,12215,19950,73,3571,32268,107819,1166,14368,271211,88385,359596,202629,261162,199044,140743,96011,50222,8059,165675,4463,44068,46137,5223,169384,2276,75539,177168,2561,1699434,100.0,84.0
Madhya Pradesh,Bhopal,23.480726143790854,77.39246623093679,2371061,920314,740376,357516,185902,171614,69429,35966,33463,867457,644960,222497,706036,161421,1503604,73346,105195,24732,664184,1755861,525434,23432,10789,21688,25950,335,7572,281442,452912,40788,94729,118893,581826,700719,229082,303171,287198,211371,178165,266618,30845,159808,60383,128211,213130,26655,281718,73852,339750,353909,45536,2363489,100.0,92.0
Madhya Pradesh,Burhanpur,21.364567254408065,76.24460478589425,757847,233073,175606,64254,33037,31217,230095,116420,113675,328339,211925,116414,274900,53439,429508,67799,156295,8077,96168,552526,180840,1199,1074,19883,1884,99,342,40478,112420,986,5058,115979,62861,178840,107547,119468,69765,57058,42618,28237,4761,37369,2142,11224,22453,2568,48291,2394,58527,55999,5140,757505,100.0,95.0
Madhya Pradesh,Chhatarpur,24.813637376460004,79.56449299191374,1762375,572010,371023,405313,215258,190055,73597,38081,35516,751797,481518,270279,553862,197935,1010578,302228,238364,26390,184815,1676918,70351,1980,968,250,10409,102,1397,36506,176056,1880,15567,375869,95048,470917,270951,236054,160310,112961,77787,59704,7837,197839,6206,65630,48339,5312,169223,4684,82967,180063,5528,1760978,100.0,88.0
Madhya Pradesh,Chhindwara,22.227966971713823,78.76413136439254,2090922,731294,562904,232244,118465,113779,769778,385785,383993,957984,582263,375721,673845,284139,1132938,283111,422668,14585,237620,1923920,100692,4893,2258,24471,7830,25771,1087,73284,344875,3588,20034,413142,140802,553944,284113,336391,225747,215098,167946,112383,12141,158956,8235,64121,75332,12765,123094,8969,138316,150476,14617,2089835,100.0,96.0
Madhya Pradesh,Damoh,23.76624407960196,79.47049303482588,1264219,445737,301978,246337,129877,116460,166295,84809,81486,574595,367711,206884,389993,184602,689624,114611,250165,67383,142436,1186420,47966,1681,1096,119,25005,82,1850,23270,187731,1432,10504,303387,66514,369901,197917,217296,150040,95032,64414,41158,5260,116361,3031,45871,28333,5284,95511,2473,66044,104780,3985,1262369,100.0,91.0
Madhya Pradesh,Datia,25.90226439560441,78.63916571428574,786754,303815,187630,200270,107132,93138,15061,7870,7191,321160,225662,95498,247229,73931,465594,152903,93744,6839,67674,747693,28483,683,490,7923,453,10,1019,17555,97696,616,5251,160453,43401,203854,132176,131372,88949,73398,48978,34853,4262,65191,2897,22895,25575,2856,83971,1382,55966,89056,2229,785735,100.0,87.0
Madhya Pradesh,Dewas,22.7851110021322,76.46088805970157,1563715,550716,374653,292007,150260,141747,272701,139174,133527,742676,451501,291175,528526,214150,821039,260222,310606,11816,160032,1376591,174259,2355,2330,382,6497,72,1229,59521,270457,3518,16523,274995,101014,376009,242508,225380,149522,125772,94403,55383,4991,117794,9017,35470,77281,8237,149660,7862,124826,168269,10372,1562486,100.0,94.0
Madhya Pradesh,Dhar,22.572681718963157,75.1105620736698,2185793,638479,438859,145436,74291,71145,1222814,614619,608195,1027974,597079,430895,783019,244955,1157819,385522,437437,15830,189185,2051219,116202,2261,1607,328,12199,88,1889,75637,349639,2388,18626,412348,103364,515712,262090,244058,164576,134279,99882,66721,6543,114497,8080,31650,85477,7096,166280,5900,123750,183741,10365,2183904,0.0,96.0
Madhya Pradesh,Dindori,22.83738437047757,81.04332966714911,704524,222759,155955,39782,20366,19416,455789,225699,230090,389925,203383,186542,250137,139788,314599,150084,190962,7958,40921,605435,6736,4238,260,61,687,84006,3101,4576,62372,554,6447,218021,9774,227795,103002,113875,84065,49277,31104,15179,1674,26743,1291,25563,7979,1759,22759,754,13765,25956,1438,701423,100.0,100.0
Madhya Pradesh,Guna,24.49043927178156,77.2235895968791,1241519,400537,253443,193115,100646,92469,190819,98206,92613,514897,335454,179443,353671,161226,726622,213949,175615,12079,113254,1172248,49203,1208,3271,529,13474,52,1534,34184,144248,2482,11740,212765,72320,285085,197902,157141,84560,79924,50724,42147,6451,76571,5968,36818,43568,4328,110861,4802,80642,120895,5706,1239985,100.0,91.0
Madhya Pradesh,Gwalior,26.04074441964285,78.12782433035713,2032036,803114,554096,393068,210354,182714,72133,37704,34429,685311,548820,136491,559845,125466,1346725,130586,120348,22592,411785,1835299,141735,4119,24790,4361,18058,217,3457,165061,306859,15779,46454,172720,272172,444892,235648,235924,204871,193082,166719,193947,23148,194763,21313,55302,126189,15878,212669,30277,232840,253163,24616,2028579,100.0,86.0
Madhya Pradesh,Harda,22.227659781121783,77.07022571819435,570465,203807,148743,92865,48553,44312,159678,81446,78232,230979,156852,74127,163781,67198,339486,68019,101256,6459,55245,527462,38640,683,676,93,1573,55,1283,22174,95066,986,5376,112714,31845,144559,90059,87733,60757,46556,31939,27126,3469,29025,3556,6664,30952,2312,58528,2269,45661,63615,2775,569182,100.0,93.0
Madhya Pradesh,Hoshangabad,22.595268801996703,78.02168094841929,1241350,469199,341445,205007,107237,97770,197300,101041,96259,478082,345435,132647,361648,116434,763268,116440,181967,9982,169693,1175203,52269,4453,3127,1550,3888,107,753,61415,198076,2871,14456,209650,105746,315396,159703,183156,145076,119682,89589,84769,9279,106654,7335,22634,67460,5440,125466,7754,112371,138517,7611,1240597,100.0,91.0
Madhya Pradesh,Indore,22.680265752128648,75.9133801324502,3276697,1289631,1019499,545239,280184,265055,217679,112687,104992,1268195,939055,329140,1137251,130944,2008502,150907,185528,43584,888176,2728225,415142,18523,25696,11496,71667,720,5228,417170,593576,48691,111478,200371,587947,788318,428413,472233,384611,362209,300076,382658,36326,318881,64865,199866,286973,35467,382419,88099,464337,479762,61876,3271469,100.0,93.0
Madhya Pradesh,Jabalpur,23.18525572327043,79.98328754716981,2463289,980307,776161,348029,179858,168171,375231,189915,185316,1005624,705970,299654,744287,261337,1457665,106882,283636,69946,545160,2159065,203652,23142,13256,4320,33728,21010,5116,192581,452023,20443,58601,272284,352477,624761,267932,352284,313910,268333,222987,235072,24872,271469,26487,96985,154678,19978,225299,40531,285248,274726,29449,2458173,100.0,93.0
Madhya Pradesh,Jhabua,22.419578015397768,74.40921616766468,1025048,214582,137499,17427,8770,8657,891818,446359,445459,515121,265489,249632,370641,144480,509927,329175,115649,5132,65165,960925,15733,38423,141,65,8871,388,502,16683,125411,744,5591,211080,24713,235793,98308,79781,40466,38236,28990,20240,1973,31319,2215,9554,20076,1463,56006,1718,22470,60130,2661,1024546,0.0,99.0
Madhya Pradesh,Katni,23.724416229116937,80.33819665871127,1292042,460583,330190,155717,79369,76348,317699,159799,157900,543874,348410,195464,316144,227730,748168,112812,223902,31261,175899,1240650,37232,3158,1167,157,5342,2643,1693,38086,172416,2179,13094,276151,72880,349031,198447,207366,161727,112242,80935,53578,6658,133962,3958,35724,35359,4570,91302,4652,76207,100862,4990,1290349,100.0,95.0
